Y,name,district,url,photo,telephone,longitude,operationType,X,latitude,discountCategory,operationCategory,address,discountPeriod,openingHours,discountContent,discountCondition
,全家便利商店(西站分公司),中正區,,,02-2321-6231,121.521368,餐飲類,,25.032646,折價,便利超商,台北市中正區愛國東路112號,2011/05/1起,00:00-24:00,全家伯朗咖啡館 飲品折價3元,自備飲料杯
,好凍吸(信義中坡),信義區,,,02-2727-4116,121.585091,餐飲類,,25.040988,折價,飲料店,台北市信義區中坡南路96號,2011/05/1起,11:00-22:00,650ml(含)以上折價2元，以下折價1元,自備飲料杯
,50嵐(通化店),大安區,,,02-2739-9748,121.55414,餐飲類,,25.02932,折價,飲料店,台北市大安區通化街119號,2011/05/1起,11:00-22:00,大杯折價2元，中杯折價1元,自備飲料杯
,怡客咖啡(行天宮捷運店),中山區,,,02-2518-5592,121.533463,餐飲類,,25.060068,折價,飲料店,台北市中山區松江路277號,2011/05/1起,11:00-22:00,飲品折價5元，若與店內其它優惠用折價1元,自備飲料杯
,星巴克(台北momo門市),松山區,,,02-2719-2682,121.548333,餐飲類,,25.057418,折價,飲料店,台北市松山區民生東路3段156-1號(宏泰大樓),2011/05/1起,11:00-22:00,飲品折價10元,自備飲料杯
,伯朗咖啡(小巨蛋一店),松山區,,,02-2570-0123,121.550452,餐飲類,,25.048072,折價,飲料店,台北市松山區八德路3段10號1樓(台視大樓旁),2011/05/1起,11:00-22:00,飲品折價3元,自備飲料杯
,85度C(台北永吉店),信義區,,,02-2748-5225,121.575385,餐飲類,,25.045692,折價,飲料店,台北市信義區永吉路269號,2011/05/1起,11:00-22:00,飲品折價3元,自備飲料杯
,聖德科斯天然有機門市(嘉義新民門市),西區,,,05-283-0173,120.440106,餐飲類,,23.466307,折價,其他,嘉義市西區新民路615號,2012/08/01起,07:30~21:00,自備環保杯來店購買任一現打飲品或研磨現煮有機咖啡的折價2元,自備飲料杯
,7-ELEVEN(台北市第七0五分公司),信義區,,,02-2749-3325,121.576062,餐飲類,,25.040966,折價,便利超商,台北市信義區忠孝東路5段451號1樓,2011/05/1起,00:00-24:00,City caf / 思樂冰 650ml以上折價2元，以下折價1元,自備飲料杯
,聖德科斯天然有機門市(天母門市),士林區,,,02-2873-1023,121.526624,餐飲類,,25.118349,折價,其他,臺北市士林區天母西路28號,2012/08/01起,07:30~21:00,自備環保杯來店購買任一現打飲品或研磨現煮有機咖啡的折價2元,自備飲料杯
,7-ELEVEN(台北市第六七三分公司),中山區,,,02-2517-9248,121.533228,餐飲類,,25.05115,折價,便利超商,台北市中山區松江路101號,2011/05/1起,00:00-24:00,City caf / 思樂冰 650ml以上折價2元，以下折價1元,自備飲料杯
,水巷茶弄(台北錦州二店),中山區,,,02-2523-7575,121.52426,餐飲類,,25.060226,折價,飲料店,台北市中山區錦州街24號,2011/05/1起,11:00-22:00,飲品折價2元,自備飲料杯
,巧沛國際(農安店),中山區,,,02-25006397,121.533948,餐飲類,,25.06445,折價,早餐店,台北市中山區農安街166巷3號,2011/09/01起,07:00-11:00,折價1元,自備飲料杯
,7-ELEVEN(台北市一0四分公司),文山區,,,,121.566656,餐飲類,,24.983175,折價,便利超商,台北市文山區木新路2段255號,2011/05/1起,00:00-24:00,City caf / 思樂冰 650ml以上折價2元，以下折價1元,自備飲料杯
,全家便利商店(萬安分公司),文山區,,,02-2239-1777,121.570638,餐飲類,,25.001253,折價,便利超商,台北市文山區萬安街17號1樓,2011/05/1起,00:00-24:00,全家伯朗咖啡館 飲品折價3元,自備飲料杯
,7-ELEVEN(台北市第三0八分公司),北投區,,,02-2826-1043,121.512955,餐飲類,,25.117452,折價,便利超商,台北市北投區致遠二路149號,2011/05/1起,00:00-24:00,City caf / 思樂冰 650ml以上折價2元，以下折價1元,自備飲料杯
,7-ELEVEN(台北市第四七九分公司),大安區,,,02-2707-0732,121.543897,餐飲類,,25.032399,折價,便利超商,台北市大安區復興南路2段17號,2011/05/1起,00:00-24:00,City caf / 思樂冰 650ml以上折價2元，以下折價1元,自備飲料杯
,OK超商(第292分公司),文山區,,,02-6617-2231,121.538818,餐飲類,,25.001842,折價,便利超商,台北市文山區羅斯福路5段220號,2011/05/1起,00:00-24:00,OK Caf 飲品折價3元,自備飲料杯
,肯德基(同領門市部),大安區,,,02-2325-0938,121.557336,餐飲類,,25.037426,集點,速食店,台北市大安區仁愛路4段418號、418號地下,2011/05/1起,11:00-22:00,每杯1點，集5點可兌換32元以內杯裝飲料(不含湯品、100%柳橙汁、瓶裝、罐裝等飲料或包裝水),自備飲料杯
,萊爾富(北市杭州分公司),大安區,,,02-2357-9306,121.524006,餐飲類,,25.034556,折價,便利超商,台北市大安區杭州南路2段5號1樓,2011/05/1起,00:00-24:00,Hi Caf 飲品折價3元,自備飲料杯
,古早味A肥茶(北市安通店),中山區,,,02-2550-4322,121.526484,餐飲類,,25.049345,折價,飲料店,台北市中山區長安東路1段53巷14號,2011/05/1起,11:00-22:00,500ml折價1元，700ml折價2元，960ml折價3元,自備飲料杯
,橘子工坊(芝山店),士林區,,,02-2836-0550,121.522531,餐飲類,,25.104872,集點,飲料店,台北市士林區德行西路76號,2011/05/1起,11:00-22:00,每杯1點，集10點可兌換30元飲品，或補差額換購30元以上飲料,自備飲料杯
,7-ELEVEN(台北市第一五0分公司),中正區,,,02-2364-6532,121.52366,餐飲類,,25.022402,折價,便利超商,台北市中正區汀洲路2段210號,2011/05/1起,00:00-24:00,City caf / 思樂冰 650ml以上折價2元，以下折價1元,自備飲料杯
,7-ELEVEN(台北市第六八九分公司),中山區,,, 02-2777-4809,121.54066,餐飲類,,25.048233,折價,便利超商,台北市中山區長安東路2段178及178號之1一樓,2011/05/1起,00:00-24:00,City caf / 思樂冰 650ml以上折價2元，以下折價1元,自備飲料杯
,壹咖啡(石牌致遠),北投區,,,02-2823-1514,121.514993,餐飲類,,25.110353,折價,飲料店,台北市北投區致遠一路1段126號,2011/05/1起,11:00-22:00,飲品折價2元，可與其他優惠並行但不折抵現金,自備飲料杯
,7-ELEVEN(台北市第二七八分公司),中山區,,,02-2511-9429,121.523298,餐飲類,,25.050779,折價,便利超商,台北市中山區中山北路1段105巷13號,2011/05/1起,00:00-24:00,City caf / 思樂冰 650ml以上折價2元，以下折價1元,自備飲料杯
,漢堡王(國醫店),內湖區,,,02-8791-8136,121.590019,餐飲類,,25.071538,集點,速食店,台北市內湖區成功路2段325號B1,2011/05/1起,11:00-22:00,每杯1點，集10點可兌換30元飲料1杯,自備飲料杯
,拉亞漢堡(北市行天宮店),中山區,,,02-25855518,121.531804,餐飲類,,25.063314,折價,早餐店,台北市中山區民權東路2段71巷13號,2011/09/01起,07:00-11:00,折價1元,自備飲料杯
,7-ELEVEN(台北市第六九一分公司),大同區,,,02-2599-5942,121.516291,餐飲類,,25.063165,折價,便利超商,台北市大同區民權西路157-1號,2011/05/1起,00:00-24:00,City caf / 思樂冰 650ml以上折價2元，以下折價1元,自備飲料杯
,Naissance  Coffee(金研門市),中正區,,,02-3365-3599,121.525855,餐飲類,,25.022382,折價,飲料店,台北市中正區羅斯福路3段62號1樓,2011/05/1起,11:00-22:00,飲品折價1元,自備飲料杯
,COME  BUY(通化),大安區,,,02-2732-1360,121.554162,餐飲類,,25.029603,集點,飲料店,台北市大安區通化街103號,2011/05/1起,11:00-22:00,每杯1點，集10點可兌換30元飲品1杯,自備飲料杯
,怡客咖啡(瑞光分公司),內湖區,,,02-2659-8642,121.577099,餐飲類,,25.074723,折價,飲料店,台北市內湖區瑞光路192號,2011/05/1起,11:00-22:00,飲品折價5元，若與店內其它優惠用折價1元,自備飲料杯
,全家便利商店(和東分公司),大安區,,,02-2392-4175,121.521944,餐飲類,,25.028111,折價,便利超商,台北市大安區羅斯福路2段17號,2011/05/1起,00:00-24:00,全家伯朗咖啡館 飲品折價3元,自備飲料杯
,7-ELEVEN(台北市第一九四分公司),北投區,,,02-2858-1719,121.46747,餐飲類,,25.121743,折價,便利超商,台北市北投區知行路282號,2011/05/1起,00:00-24:00,City caf / 思樂冰 650ml以上折價2元，以下折價1元,自備飲料杯
,肯德基(台北士林分公司),士林區,,,02-2881-1323,121.525979,餐飲類,,25.087348,集點,速食店,台北市士林區文林路88號,2011/05/1起,11:00-22:00,每杯1點，集5點可兌換32元以內杯裝飲料(不含湯品、100%柳橙汁、瓶裝、罐裝等飲料或包裝水),自備飲料杯
,怡客咖啡(南港店),南港區,,,02-2655-2782,121.613524,餐飲類,,25.058136,折價,飲料店,台北市南港區三重路19-10號1樓,2011/05/1起,11:00-22:00,飲品折價5元，若與店內其它優惠用折價1元,自備飲料杯
,拿坡里披薩(興隆分公司),文山區,,,02-2930-2400,121.555425,餐飲類,,25.00071,折價,速食店,台北市文山區興德路6巷2號1樓,2011/05/1起,11:00-22:00,飲品折價3元,自備飲料杯
,聖德科斯天然有機門市(高雄鄭和門市),前鎮區,,,07-536-8555,120.315712,餐飲類,,22.605641,折價,其他,高雄市前鎮區鄭和南路311號,2012/08/01起,07:30~21:00,自備環保杯來店購買任一現打飲品或研磨現煮有機咖啡的折價2元,自備飲料杯
,50嵐(世貿店),信義區,,,02-2732-1350,121.557565,餐飲類,,25.029267,折價,飲料店,台北市信義區基隆路2段107之3號,2011/05/1起,11:00-22:00,大杯折價2元，中杯折價1元,自備飲料杯
,橘子(石牌店),北投區,,,02-2827-5515,121.51667,餐飲類,,25.116594,集點,飲料店,台北市北投區裕民一路20號,2011/05/1起,11:00-22:00,每杯1點，集5點可兌換15元飲品，或加價換購其他飲品(果汁除外),自備飲料杯
,清心福全(台北中山錦州店),中山區,,,02-2509-3117,121.541384,餐飲類,,25.060358,折價,飲料店,台北市中山區錦州街395號,2011/05/1起,11:00-22:00,650ml(含)以上折價2元，以下折價1元,自備飲料杯
,摩斯漢堡(光復分公司),大安區,,,02-2701-3321,121.557314,餐飲類,,25.034597,集點,速食店,台北市大安區光復南路552號,2011/05/1起,11:00-22:00,每杯1點，集5點可兌換30元商品，集10點可兌換60元商品(前述不含罐裝、瓶裝非現場填裝)飲料,自備飲料杯
,50嵐(石牌店),北投區,,,02-2821-1346,121.516998,餐飲類,,25.116778,折價,飲料店,台北市北投區裕民一路23號,2011/05/1起,11:00-22:00,大杯折價2元，中杯折價1元,自備飲料杯
,麥當勞(台北考試院分公司),文山區,,,"02-2236-2598
02-2236-2617",121.550204,餐飲類,,24.987595,集點,速食店,台北市文山區木柵路1段137號,2011/05/1起,11:00-22:00,每杯1點，集5點可兌換30元飲料1杯(奶昔、漂浮飲品及免費飲料不在集點範圍內),自備飲料杯
,聖德科斯天然有機門市(和平安居門市),大安區,,,02-2377-5286,121.555032,餐飲類,,25.021767,折價,其他,臺北市大安區和平東路三段246號,2012/08/01起,07:30~21:00,自備環保杯來店購買任一現打飲品或研磨現煮有機咖啡的折價2元,自備飲料杯
,拉亞漢堡(內湖麗嬰房店),內湖區,,,02-26594241,121.577045,餐飲類,,25.071622,折價,早餐店,台北市內湖區陽光街321巷60號,2011/09/01起,07:00-11:00,折價1元,自備飲料杯
,拉亞漢堡(北市敦北店),松山區,,,02-87123335,121.548138,餐飲類,,25.05368,折價,早餐店,台北市松山區敦化北路120巷7弄13號,2011/09/01起,07:00-11:00,折價1元,自備飲料杯
,喫茶趣(大直店),中山區,,,02-8502-0608,121.556144,餐飲類,,25.080411,折價,飲料店,台北市中山區敬業三路123號1樓(大直愛買),2011/05/1起,11:00-22:00,500ml折價2元,自備飲料杯
,7-ELEVEN(台北市第二五三分公司),大安區,,,02-2778-7784,121.552028,餐飲類,,25.042161,折價,便利超商,台北市大安區忠孝東路4段205巷7弄1號,2011/05/1起,00:00-24:00,City caf / 思樂冰 650ml以上折價2元，以下折價1元,自備飲料杯
,7-ELEVEN(台北市第一七一分公司),士林區,,,02-2832-9371,121.53134,餐飲類,,25.105828,折價,便利超商,台北市士林區忠義街68號,2011/05/1起,00:00-24:00,City caf / 思樂冰 650ml以上折價2元，以下折價1元,自備飲料杯
,全家便利商店(保生分公司),大同區,,,02-2557-8978,121.513826,餐飲類,,25.062743,折價,便利超商,台北市大同區重慶北路2段263號1樓,2011/05/1起,00:00-24:00,全家伯朗咖啡館 飲品折價3元,自備飲料杯
,清心福全(台北大同重慶北店),大同區,,,02-2596-4768,121.511289,餐飲類,,25.06438,折價,飲料店,台北市大同區延平北路3段25之1號,2011/05/1起,11:00-22:00,650ml(含)以上折價2元，以下折價1元,自備飲料杯
,快樂地水果吧(南西店),中山區,,,0921-262-180,121.521187,餐飲類,,25.052307,折價,飲料店,台北市中山區南京西路12號,2011/05/1起,11:00-22:00,飲品折價2元,自備飲料杯
,Subway(101 MALL),信義區,,,02-8101-8195,121.564101,餐飲類,,25.033493,折價,速食店,台北市信義區市府路45號B1-10,2011/05/1起,11:00-22:00,651ml(含)以上折價3元，501至650ml折價2元，500ml(含)以下折1元,自備飲料杯
,歇腳亭(內湖新明店),內湖區,,,02-2796-1947,121.584595,餐飲類,,25.05714,集點,飲料店,台北市內湖區新明路210號,2011/05/1起,11:00-22:00,每杯2點，集10點可兌或折抵35元以下飲料1杯,自備飲料杯
,全家便利商店(東安分公司),內湖區,,,02-2634-5521,121.615869,餐飲類,,25.067858,折價,便利超商,台北市內湖區安康路480號,2011/05/1起,00:00-24:00,全家伯朗咖啡館 飲品折價3元,自備飲料杯
,丹堤咖啡(重慶寧波店),中正區,,,02-2357-8031,121.515392,餐飲類,,25.030041,折價,飲料店,台北市中正區重慶南路2段73號,2011/05/1起,11:00-22:00,飲品折價5元,自備飲料杯
,7-ELEVEN(台北市第三八四分公司),松山區,,,02-3765-2630,121.56156,餐飲類,,25.051682,折價,便利超商,台北市松山區南京東路5段139-4、139-8號,2011/05/1起,00:00-24:00,City caf / 思樂冰 650ml以上折價2元，以下折價1元,自備飲料杯
,7-ELEVEN(台北市第六四四分公司),士林區,,,02-2834-5642,121.51988,餐飲類,,25.097087,折價,便利超商,台北市士林區美崙街112號,2011/05/1起,00:00-24:00,City caf / 思樂冰 650ml以上折價2元，以下折價1元,自備飲料杯
,聖德科斯天然有機門市(大坪林門市),新店區,,,02-2916-1141,121.539747,餐飲類,,24.982748,折價,其他,新北市新店區民權路49號,2012/08/01起,07:30~21:00,自備環保杯來店購買任一現打飲品或研磨現煮有機咖啡的折價2元,自備飲料杯
,MisterDonuts(台北市第二分公司),信義區,,,02-2746-7916 ,121.566688,餐飲類,,25.046781,折價,飲料店,台北市信義區東興路67號1樓(統一超商大樓),2011/05/1起,11:00-22:00,飲品折價3元(若該飲品使用優惠免費贈送者，無享折價優惠),自備飲料杯
,清心福全(台北北投致遠店),北投區,,,02-2822-3996,121.512802,餐飲類,,25.113046,折價,飲料店,台北市北投區致遠一路2段105號,2011/05/1起,11:00-22:00,650ml(含)以上折價2元，以下折價1元,自備飲料杯
,OK超商(第125分公司),北投區,,,02-6617-1731,121.497523,餐飲類,,25.136053,折價,便利超商,台北市北投區中央北路1段206、208號,2011/05/1起,00:00-24:00,OK Caf 飲品折價3元,自備飲料杯
,全家便利商店(明德分公司),北投區,,,02-2823-9507,121.518888,餐飲類,,25.10908,折價,便利超商,台北市北投區明德路93號1樓,2011/05/1起,00:00-24:00,全家伯朗咖啡館 飲品折價3元,自備飲料杯
,7-ELEVEN(台北市第六七七分公司),內湖區,,,02-2658-9241,121.578968,餐飲類,,25.078517,折價,便利超商,台北市內湖區文德路6號,2011/05/1起,00:00-24:00,City caf / 思樂冰 650ml以上折價2元，以下折價1元,自備飲料杯
,聖德科斯天然有機門市(後山埤門市),南港區,,,02-2652-2885,121.583119,餐飲類,,25.045367,折價,其他,臺北市南港區忠孝東路六段8號,2012/08/01起,07:30~21:00,自備環保杯來店購買任一現打飲品或研磨現煮有機咖啡的折價2元,自備飲料杯
,真鍋珈琲館(士林旗艦店),士林區,,,02-2880-2669,121.525742,餐飲類,,25.09239,折價,飲料店,台北市士林區福德路12號,2011/05/1起,11:00-22:00,650ml(含)以上折價2元，以下折價1元,自備飲料杯
,全家便利商店(昌隆分公司),大安區,,,02-8369-1009,121.536331,餐飲類,,25.025682,折價,便利超商,台北市大安區和平東路2段22號,2011/05/1起,00:00-24:00,全家伯朗咖啡館 飲品折價3元,自備飲料杯
,50嵐(吉林店),中山區,,,02-2100-1912,121.530379,餐飲類,,25.059624,折價,飲料店,台北市中山區吉林路185號,2011/05/1起,11:00-22:00,大杯折價2元，中杯折價1元,自備飲料杯
,全家便利商店(世貿分公司),信義區,,,02-8788-4949,121.558835,餐飲類,,25.033259,折價,便利超商,台北市信義區信義路4段405號1樓,2011/05/1起,00:00-24:00,全家伯朗咖啡館 飲品折價3元,自備飲料杯
,呷尚寶(南港店),南港區,,,02-26548360,121.593386,餐飲類,,25.05462,折價,早餐店,台北市南港區南港路2段328號,2011/09/01起,07:00-11:00,折價1元,自備飲料杯
,7-ELEVEN(台北市第一九八分公司),松山區,,,02-274-01886,121.544222,餐飲類,,25.050024,折價,便利超商,台北市松山區復興北路35號,2011/05/1起,00:00-24:00,City caf / 思樂冰 650ml以上折價2元，以下折價1元,自備飲料杯
,摩斯漢堡(林森分公司),中山區,,,02-2581-8390,121.525096,餐飲類,,25.051558,集點,速食店,台北市中山區林森北路140號,2011/05/1起,11:00-22:00,每杯1點，集5點可兌換30元商品，集10點可兌換60元商品(前述不含罐裝、瓶裝非現場填裝)飲料,自備飲料杯
,85度C(台北榮星店),中山區,,,02-2517-1525,121.540855,餐飲類,,25.066089,折價,飲料店,台北市中山區龍江路358號1樓,2011/05/1起,11:00-22:00,飲品折價3元,自備飲料杯
,7-ELEVEN(台北市第五五八分公司),中正區,,,02-3322-4217,121.531172,餐飲類,,25.040321,折價,便利超商,台北市中正區濟南路2段50號1樓,2011/05/1起,00:00-24:00,City caf / 思樂冰 650ml以上折價2元，以下折價1元,自備飲料杯
,星巴克(公館台大),中正區,,,02-2389-3776,121.514113,餐飲類,,25.046194,折價,飲料店,台北市中正區懷寧街10號1~3樓(懷寧街與開封街口),2011/05/1起,11:00-22:00,飲品折價10元,自備飲料杯
,超秦(麥味登)(西園店),萬華區,,,02-23029010,121.496166,餐飲類,,25.029421,折價,早餐店,台北市萬華區西園路2段139號,2011/09/01起,07:00-11:00,折價1元,自備飲料杯
,7-ELEVEN(台北市二三一分公司),內湖區,,,02-2791-1337,121.586718,餐飲類,,25.08827,折價,便利超商,台北市內湖區金龍路224號,2011/05/1起,00:00-24:00,City caf / 思樂冰 650ml以上折價2元，以下折價1元,自備飲料杯
,COME  BUY(林森店),大同區,,,02-2581-9907,121.525447,餐飲類,,25.054361,集點,飲料店,台北市大同區林森北路259巷(欣欣票口對面),2011/05/1起,11:00-10:00,每杯1點，集10點可兌換30元飲品1杯,自備飲料杯
,Dunkin'  Donuts(寶慶店(店號7122)),中正區,,,02-2382-6901,121.519872,餐飲類,,25.042141,折價,飲料店,台北市中正區寶慶路32號B1(遠東百貨),2011/05/1起,11:00-22:00,飲品折價3元,自備飲料杯
,7-ELEVEN(台北市第六分公司),北投區,,,02-2820-8072,121.512426,餐飲類,,25.113987,折價,便利超商,台北市北投區石牌路1段126號1樓,2011/05/1起,00:00-24:00,City caf / 思樂冰 650ml以上折價2元，以下折價1元,自備飲料杯
,戀之味飲食名店,士林區,,,02-88666788,121.522361,餐飲類,,25.097093,折價,中式,臺北市士林區文昌路10號,2011/07/01-2012/07/31,10:00-00:30,折價5元,自備餐盒
,全家便利商店(福澤分公司),大同區,,,02-2557-6965,121.520159,餐飲類,,25.057757,折價,便利超商,台北市大同區民生西路63號,2011/05/1起,00:00-24:00,全家伯朗咖啡館 飲品折價3元,自備飲料杯
,7-ELEVEN(台北市第三0一分公司),中山區,,,02-2567-6232,121.522468,餐飲類,,25.054554,折價,便利超商,台北市中山區中山北路2段40-1號,2011/05/1起,00:00-24:00,City caf / 思樂冰 650ml以上折價2元，以下折價1元,自備飲料杯
,鮮芋仙(台北西湖店),內湖區,,,02-2627-4322,121.565244,餐飲類,,25.082658,折價,飲料店,台北市內湖區內湖路1段239號,2011/05/1起,11:00-22:00,650ml(含)以上折價2元，以下折價1元,自備飲料杯
,呷尚寶(道德店),信義區,,,02-27275783,121.58255,餐飲類,,25.040937,折價,早餐店,台北市信義區大道路75號,2011/09/01起,07:00-11:00,折價1元,自備飲料杯
,萊爾富(北市士海店),士林區,,,02-2810-6275,121.471491,餐飲類,,25.108581,折價,便利超商,台北市士林區延平北路9段212號(台北海洋學院),2011/05/1起,00:00-24:00,Hi Caf 飲品折價3元,自備飲料杯
,呷尚寶(內湖店),內湖區,,,02-27939323,121.592185,餐飲類,,25.083408,折價,早餐店,台北市內湖區內湖路2段432號,2011/09/01起,07:00-11:00,折價1元,自備飲料杯
,7-ELEVEN(台北市第四十五分公司),大同區,,,02-2599-2807,121.515727,餐飲類,,25.071883,折價,便利超商,台北市大同區酒泉街58、60號,2011/05/1起,00:00-24:00,City caf / 思樂冰 650ml以上折價2元，以下折價1元,自備飲料杯
,麥當勞(士林中正分公司),士林區,,,"02-2880-4169
02-2880-4164",121.524061,餐飲類,,25.094728,集點,速食店,台北市士林區中正路287號1樓,2011/05/1起,11:00-22:00,每杯1點，集5點可兌換30元飲料1杯(奶昔、漂浮飲品及免費飲料不在集點範圍內),自備飲料杯
,Golden咖啡茶飲(民生合江店),中山區,,,02-2515-0188,121.539284,餐飲類,,25.058129,折價,飲料店,台北市中山區合江街67-11號,2011/05/1起,11:00-22:00,650ml(含)以上折價3元，以下折價2元,自備飲料杯
,萊爾富(北市北和分公司),北投區,,,02-2894-3393,121.498167,餐飲類,,25.143581,折價,便利超商,台北市北投區中和街402號1樓,2011/05/1起,00:00-24:00,Hi Caf 飲品折價3元,自備飲料杯
,西雅圖咖啡(忠孝延吉店),大安區,,,02-2711-6950,121.554662,餐飲類,,25.041225,折價,飲料店,台北市大安區忠孝東路4段250號1樓,2011/05/1起,11:00-22:00,飲品折價5元,自備飲料杯
,50嵐(西門國賓店),萬華區,,,02-2370-5488,121.504445,餐飲類,,25.043261,折價,飲料店,台北市萬華區成都路99-1號,2011/05/1起,11:00-22:00,大杯折價2元，中杯折價1元,自備飲料杯
,7-ELEVEN(台北市第五十四分公司),松山區,,,02-2546-6532,121.546691,餐飲類,,25.052477,折價,便利超商,台北市松山區南京東路3段303巷5號,2011/05/1起,00:00-24:00,City caf / 思樂冰 650ml以上折價2元，以下折價1元,自備飲料杯
,7-ELEVEN(台北市第三六六分公司),北投區,,,02-2826-4184,121.522299,餐飲類,,25.118001,折價,便利超商,台北市北投區振興街31號,2011/05/1起,00:00-24:00,City caf / 思樂冰 650ml以上折價2元，以下折價1元,自備飲料杯
,OK超商(第873分公司),北投區,,,02-2894-6082,121.499944,餐飲類,,25.142146,折價,便利超商,台北市北投區復興四路23號1樓,2011/05/1起,00:00-24:00,OK Caf 飲品折價3元,自備飲料杯
,7-ELEVEN(台北市第六一一分公司),中正區,,,02-2331-2768,121.518776,餐飲類,,25.046117,折價,便利超商,台北市中正區忠孝西路1段33、35號,2011/05/1起,00:00-24:00,City caf / 思樂冰 650ml以上折價2元，以下折價1元,自備飲料杯
,萊爾富(第三八二0分公司),內湖區,,,02-2634-6037,121.604092,餐飲類,,25.073503,折價,便利超商,台北市內湖區金湖路358、358-1號,2011/05/1起,00:00-24:00,Hi Caf 飲品折價3元,自備飲料杯
,色杯子絕色茶飲(台北科大分公司),大安區,,,02-2711-4161,121.546298,餐飲類,,25.04441,集點,飲料店,台北市大安區大安路1段21號,2011/05/1起,11:00-22:00,每杯1點，集10點可換30元飲料一杯或補差額買30元以上飲品,自備飲料杯
,環島粉圓(南陽店),中正區,,,02-2361-7272,121.516027,餐飲類,,25.045431,折價,飲料店,台北市中正區南陽街4號,2011/05/1起,11:00-22:00,650ml(含)以上折價3元，以下折價2元,自備飲料杯
,7-ELEVEN(台北市第六八一分公司),中正區,,,02-2382-6912,121.511644,餐飲類,,25.043067,折價,便利超商,台北市中正區博愛路97號1樓,2011/05/1起,00:00-24:00,City caf / 思樂冰 650ml以上折價2元，以下折價1元,自備飲料杯
,50嵐(新北投店),北投區,,,02-2891-5291,121.503497,餐飲類,,25.136035,折價,飲料店,台北市北投區光明路195號,2011/05/1起,11:00-22:00,大杯折價2元，中杯折價1元,自備飲料杯
,怡客咖啡(逸仙店),信義區,,,02-2345-0714,121.562454,餐飲類,,25.040516,折價,飲料店,台北市信義區逸仙路50巷12號,2011/05/1起,11:00-22:00,飲品折價5元，若與店內其它優惠用折價1元,自備飲料杯
,聖德科斯天然有機門市(內湖成功門市),內湖區,,,02-2791-7357,121.594698,餐飲類,,25.083688,折價,其他,臺北市內湖區成功路四段173號,2012/08/01起,07:30~21:00,自備環保杯來店購買任一現打飲品或研磨現煮有機咖啡的折價2元,自備飲料杯
,麥當勞(成都路分公司),萬華區,,,02-2381-0122,121.507222,餐飲類,,25.043489,集點,速食店,台北市萬華區漢中街,2011/05/1起,11:00-22:00,每杯1點，集5點可兌換30元飲料1杯(奶昔、漂浮飲品及免費飲料不在集點範圍內),自備飲料杯
,原沏(石牌致遠店),北投區,,,02-2823-1514,121.514993,餐飲類,,25.110353,折價,飲料店,台北市北投區致遠一路126號,2011/05/1起,11:00-22:00,飲品折價2元，可與其他優惠並行但不折抵現金,自備飲料杯
,全家便利商店(富台分公司),信義區,,,02-2763-9428,121.574175,餐飲類,,25.042113,折價,便利超商,台北市信義區虎林街120巷148號1樓,2011/05/1起,00:00-24:00,全家伯朗咖啡館 飲品折價3元,自備飲料杯
,星巴克(內湖三總門市),內湖區,,,02-8791- 8095,121.590019,餐飲類,,25.071538,折價,飲料店,台北市內湖區成功路2段325號B1,2011/05/1起,11:00-22:00,飲品折價10元,自備飲料杯
,摩斯漢堡(南港第二分公司),南港區,,,02-2785-8441,121.611783,餐飲類,,25.05784,集點,速食店,台北市南港區園區街3之2號2樓H棟(南港軟體園區2期H棟2樓),2011/05/1起,11:00-22:00,每杯1點，集5點可兌換30元商品，集10點可兌換60元商品(前述不含罐裝、瓶裝非現場填裝)飲料,自備飲料杯
,MisterDonuts(A11門市),信義區,,,02-2723-7463,121.567208,餐飲類,,25.036004,折價,飲料店,台北市信義區松壽路11號B1(三越信義A11館),2011/05/1起,11:00-22:00,飲品折價3元(若該飲品使用優惠免費贈送者，無享折價優惠),自備飲料杯
,星巴克(台北市第二十七分公司),中山區,,,02-2504-4751,121.543988,餐飲類,,25.061973,折價,飲料店,台北市中山區民權東路3段88號1樓(復興北路民權東路口),2011/05/1起,11:00-22:00,飲品折價10元,自備飲料杯
,酷聖石Cold Stone(崇光門市),大安區,,,02-8771-0301,121.544838,餐飲類,,25.041758,折價,飲料店,台北市大安區忠孝東路4段45號B1(SOGO忠孝館B1美食街),2011/05/1起,11:00-22:00,飲品折價10元,自備飲料杯
,呷尚寶(合江店),中山區,,,02-25165224,121.539307,餐飲類,,25.060148,折價,早餐店,台北市中山區合江街115號,2011/09/01起,07:00-11:00,折價1元,自備飲料杯
,好了啦(天母德行),士林區,,,0929-316-663,121.528276,餐飲類,,25.108436,折價,飲料店,台北市士林區德行東路109巷25號,2011/05/1起,11:00-22:00,650ml(含)以上折價2元，以下折價1元,自備飲料杯
,伯朗咖啡(台北承德一分公司),大同區,,,02-2585-7678,121.515773,餐飲類,,25.068457,折價,飲料店,台北市大同區民族西路146號,2011/05/1起,11:00-22:00,飲品折價3元,自備飲料杯
,瑞麟美而美(一江店),中山區,,,02-25632092,121.531408,餐飲類,,25.05376,折價,早餐店,台北市中山區一江街36號,2011/09/01起,07:00-11:00,折價1元,自備飲料杯
,全家便利商店(新安分公司),大安區,,,02-2754-0801,121.539236,餐飲類,,25.028656,折價,便利超商,台北市大安區建國南路2段151巷38號,2011/05/1起,00:00-24:00,全家伯朗咖啡館 飲品折價3元,自備飲料杯
,萊爾富(第三五二三分公司),大安區,,,02-2705-6643,121.549771,餐飲類,,25.036886,折價,便利超商,台北市大安區仁愛路4段112巷7號1樓,2011/05/1起,00:00-24:00,Hi Caf 飲品折價3元,自備飲料杯
,漢堡王(美麗華店),中山區,,,02-2175-3018,121.557293,餐飲類,,25.082837,集點,速食店,台北市中山區敬業三路20號B1,2011/05/1起,11:00-22:00,每杯1點，集10點可兌換30元飲料1杯,自備飲料杯
,7-ELEVEN(台北市第四十七分公司),大安區,,,02-2700-5388,121.554317,餐飲類,,25.034347,折價,便利超商,台北市大安區信義路4段265巷12弄1號,2011/05/1起,00:00-24:00,City caf / 思樂冰 650ml以上折價2元，以下折價1元,自備飲料杯
,7-ELEVEN(台北市第二0八分公司),中正區,,,02-2321-4407,121.525618,餐飲類,,25.044106,折價,便利超商,台北市中正區忠孝東路1段138號,2011/05/1起,00:00-24:00,City caf / 思樂冰 650ml以上折價2元，以下折價1元,自備飲料杯
,聖德科斯天然有機門市(士林門市),士林區,,,02-2831-5011,121.522946,餐飲類,,25.094813,折價,其他,臺北市士林區中正路310號,2012/08/01起,07:30~21:00,自備環保杯來店購買任一現打飲品或研磨現煮有機咖啡的折價2元,自備飲料杯
,呷尚寶(德安店),內湖區,,,02-27936901,121.592546,餐飲類,,25.081645,折價,早餐店,台北市內湖區成功路4段61巷3號,2011/09/01起,07:00-11:00,折價1元,自備飲料杯
,都可COCO(中崙分公司),松山區,,,02-2570-0836 ,121.557226,餐飲類,,25.048265,折價,飲料店,台北市松山區八德路3段235號,2011/05/1起,11:00-22:00,飲品折價2元,自備飲料杯
,摩斯漢堡(內湖文德店),內湖區,,,02-2659-3052,121.584152,餐飲類,,25.078291,集點,速食店,台北市內湖區文德路212號,2011/05/1起,11:00-22:00,每杯1點，集5點可兌換30元商品，集10點可兌換60元商品(前述不含罐裝、瓶裝非現場填裝)飲料,自備飲料杯
,瑞麟美而美(成功國宅店),大安區,,,02-27540843,121.547052,餐飲類,,25.026823,折價,早餐店,台北市大安區四維路198巷43號,2011/09/01起,07:00-11:00,折價1元,自備飲料杯
,拉亞漢堡(北市南港國宅店),南港區,,,02-26541949,121.591435,餐飲類,,25.039684,折價,早餐店,台北市南港區福德街373巷23號,2011/09/01起,07:00-11:00,折價1元,自備飲料杯
,摩斯漢堡(八德分公司),松山區,,,02-2579-3650,121.554419,餐飲類,,25.048263,集點,速食店,台北市松山區八德路3段123號,2011/05/1起,11:00-22:00,每杯1點，集5點可兌換30元商品，集10點可兌換60元商品(前述不含罐裝、瓶裝非現場填裝)飲料,自備飲料杯
,星巴克(林森門市),中山區,,,02-2542-8870,121.525784,餐飲類,,25.054132,折價,飲料店,台北市中山區林森北路247號1樓,2011/05/1起,11:00-22:00,飲品折價10元,自備飲料杯
,全家便利商店(台科大門市部),大安區,,,02-8773-3747,121.535411,餐飲類,,25.042151,折價,便利超商,台北市大安區忠孝東路3段1號,2011/05/1起,00:00-24:00,全家伯朗咖啡館 飲品折價3元,自備飲料杯
,麥當勞(忠孝東路八分公司),南港區,,,"02-2654-6761
02-2654-6762",121.593713,餐飲類,,25.050154,集點,速食店,台北市南港區忠孝東路6段438號1樓,2011/05/1起,11:00-22:00,每杯1點，集5點可兌換30元飲料1杯(奶昔、漂浮飲品及免費飲料不在集點範圍內),自備飲料杯
,全家便利商店(福泰分公司),中山區,,,02-2541-3026,121.524309,餐飲類,,25.057881,折價,便利超商,台北市中山區民生東路1段36號,2011/05/1起,00:00-24:00,全家伯朗咖啡館 飲品折價3元,自備飲料杯
,全家便利商店(延安分公司),大安區,,,02-2737-1371,121.541769,餐飲類,,25.024896,折價,便利超商,台北市大安區和平東路2段102-3號1樓,2011/05/1起,00:00-24:00,全家伯朗咖啡館 飲品折價3元,自備飲料杯
,cama現烘咖啡專賣店(內湖2店),內湖區,,,02-2799-5857,121.570976,餐飲類,,25.081549,折價,飲料店,台北市內湖區內湖路1段417號,2011/05/1起,11:00-22:00,飲品折價1元,自備飲料杯
,聖德科斯天然有機門市(中崙延吉門市),松山區,,,02-2570-0812,121.553803,餐飲類,,25.04534,折價,其他,臺北市松山區延吉街47號,2012/08/01起,07:30~21:00,自備環保杯來店購買任一現打飲品或研磨現煮有機咖啡的折價2元,自備飲料杯
,萊爾富(北市松康分公司),松山區,,,02-8787-1371,121.567353,餐飲類,,25.055449,折價,便利超商,台北市松山區健康路325巷12弄2號,2011/05/1起,00:00-24:00,Hi Caf 飲品折價3元,自備飲料杯
,7-ELEVEN(教育大學門市),大安區,,,,121.546479,餐飲類,,25.023345,折價,便利超商,台北市大安區敦南街38號,2011/05/1起,00:00-24:00,City caf / 思樂冰 650ml以上折價2元，以下折價1元,自備飲料杯
,摩斯漢堡(和平東路分公司),大安區,,,02-3365-3341,121.534123,餐飲類,,25.025978,集點,速食店,台北市大安區和平東路1段278號,2011/05/1起,11:00-22:00,每杯1點，集5點可兌換30元商品，集10點可兌換60元商品(前述不含罐裝、瓶裝非現場填裝)飲料,自備飲料杯
,麥當勞(大直愛買分公司),中山區,,,02-8502-2071,121.556144,餐飲類,,25.080411,集點,速食店,台北市中山區敬業三路123號,2011/05/1起,11:00-22:00,每杯1點，集5點可兌換30元飲料1杯(奶昔、漂浮飲品及免費飲料不在集點範圍內),自備飲料杯
,全家便利商店(大盛分公司),松山區,,,02-2769-3809,121.560652,餐飲類,,25.051999,折價,便利超商,台北市松山區南京東路5段123巷1-8號1樓,2011/05/1起,00:00-24:00,全家伯朗咖啡館 飲品折價3元,自備飲料杯
,7-ELEVEN(台北市第五四二分公司),中正區,,,02-2375-7275,121.517361,餐飲類,,25.045516,折價,便利超商,台北市中正區公園路13號,2011/05/1起,00:00-24:00,City caf / 思樂冰 650ml以上折價2元，以下折價1元,自備飲料杯
,清心福全(台北南港店),南港區,,,02-2788-2811,121.592522,餐飲類,,25.054455,折價,飲料店,台北市南港區南港路3段20號,2011/05/1起,11:00-22:00,650ml(含)以上折價2元，以下折價1元,自備飲料杯
,萊爾富(北市安建分公司),大安區,,,02-2703-5357,121.538247,餐飲類,,25.034539,折價,便利超商,台北市大安區建國南路1段337號1樓,2011/05/1起,00:00-24:00,Hi Caf 飲品折價3元,自備飲料杯
,丹堤咖啡(成功麗湖店),內湖區,,,02-2634-7147,121.606348,餐飲類,,25.073494,折價,飲料店,台北市內湖區成功路5段464號,2011/05/1起,11:00-22:00,飲品折價5元,自備飲料杯
,7-ELEVEN(台北市第一二八分公司),中山區,,,02-2501-3559,121.537398,餐飲類,,25.060198,折價,便利超商,台北市中山區錦州街308號1樓,2011/05/1起,00:00-24:00,City caf / 思樂冰 650ml以上折價2元，以下折價1元,自備飲料杯
,好了啦(京華城分店),松山區,,,0955-046-834,121.555192,餐飲類,,25.05262,折價,飲料店,台北市松山區南京東路4段133巷5號,2011/05/1起,11:00-22:00,650ml(含)以上折價2元，以下折價1元,自備飲料杯
,聖德科斯天然有機門市(台南崇學門市),東區,,,06-290-9985,120.223374,餐飲類,,22.98013,折價,其他,台南市東區崇學路165號,2012/08/01起,07:30~21:00,自備環保杯來店購買任一現打飲品或研磨現煮有機咖啡的折價2元,自備飲料杯
,7-ELEVEN(台北市第三0七分公司),松山區,,,02-2545-3085,121.55106,餐飲類,,25.051809,折價,便利超商,台北市松山區南京東路4段51-2號,2011/05/1起,00:00-24:00,City caf / 思樂冰 650ml以上折價2元，以下折價1元,自備飲料杯
,Subway(復北門市部),大安區,,,02-2545-0020,121.544481,餐飲類,,25.05691,折價,速食店,台北市大安區復興北路225號1樓,2011/05/1起,11:00-22:00,651ml(含)以上折價3元，501至650ml折價2元，500ml(含)以下折1元,自備飲料杯
,全家便利商店(民族分公司),中山區,,,02-2518-5693,121.539567,餐飲類,,25.066738,折價,便利超商,台北市中山區民族東路410巷23弄24號,2011/05/1起,00:00-24:00,全家伯朗咖啡館 飲品折價3元,自備飲料杯
,萊爾富(第三三九五分公司),松山區,,,02-2749-4696,121.565957,餐飲類,,25.050636,折價,便利超商,台北市松山區南京東路5段250巷3-1號1樓,2011/05/1起,00:00-24:00,Hi Caf 飲品折價3元,自備飲料杯
,壹咖啡(南京開發店),松山區,,,02-8787-9207,121.560702,餐飲類,,25.052488,折價,飲料店,台北市松山區南京東路5段123巷15號,2011/05/1起,11:00-22:00,飲品折價2元，可與其他優惠並行但不折抵現金,自備飲料杯
,7-ELEVEN(洲美門市),士林區,,,02-8811-3031,121.498064,餐飲類,,25.09325,折價,便利超商,台北市士林區延平北路6段505號,2011/05/1起,00:00-24:00,City caf / 思樂冰 650ml以上折價2元，以下折價1元,自備飲料杯
,7-ELEVEN(台北市第四五七分公司),中山區,,,02-8509-7685,121.546522,餐飲類,,25.080777,折價,便利超商,台北市中山區大直街11號,2011/05/1起,00:00-24:00,City caf / 思樂冰 650ml以上折價2元，以下折價1元,自備飲料杯
,好了啦(崇聖店),中正區,,,02-2375-2785,121.514444,餐飲類,,25.045801,折價,飲料店,台北市中正區開封街1段2-55號,2011/05/1起,11:00-22:00,650ml(含)以上折價2元，以下折價1元,自備飲料杯
,早安美芝城(東園二店),萬華區,,,02-23053747,121.497858,餐飲類,,25.022757,折價,早餐店,台北市萬華區東園街156號,2011/09/01起,07:00-11:00,折價1元,自備飲料杯
,OK超商(第140分公司),文山區,,,02-6617-1895,121.544636,餐飲類,,24.997085,折價,便利超商,台北市文山區景興路40號,2011/05/1起,00:00-24:00,OK Caf 飲品折價3元,自備飲料杯
,7-ELEVEN(台北市第四二四分公司),內湖區,,,02-2634-5565,121.610662,餐飲類,,25.072728,折價,便利超商,台北市內湖區康寧路3段99巷14號,2011/05/1起,00:00-24:00,City caf / 思樂冰 650ml以上折價2元，以下折價1元,自備飲料杯
,呷尚寶(北投店),北投區,,,02-28977822,121.499855,餐飲類,,25.134714,折價,早餐店,台北市北投區中央北路1段92號,2011/09/01起,07:00-11:00,折價1元,自備飲料杯
,橘子工坊(內湖總店),內湖區,,,02-2627-5151,121.564367,餐飲類,,25.08256,集點,飲料店,台北市內湖區內湖路1段210號(肯德基旁),2011/05/1起,11:00-22:00,每杯1點，集10點可兌換30元飲品，或補差額換購30元以上飲料,自備飲料杯
,OK超商(第278分公司),北投區,,,02-6617-8796,121.505809,餐飲類,,25.119416,折價,便利超商,台北市北投區立農街1段277號1樓,2011/05/1起,00:00-24:00,OK Caf 飲品折價3元,自備飲料杯
,好了啦(台北冠軍),內湖區,,,0916-782-820,121.596069,餐飲類,,25.078321,折價,飲料店,台北市內湖區康寧路1段星雲街交叉口,2011/05/1起,11:00-22:00,650ml(含)以上折價2元，以下折價1元,自備飲料杯
,全家便利商店(錦江分公司),中山區,,,02-2563-8875,121.532252,餐飲類,,25.06045,折價,便利超商,台北市中山區錦州街215號,2011/05/1起,00:00-24:00,全家伯朗咖啡館 飲品折價3元,自備飲料杯
,星巴克(台北市第三十八分公司),中正區,,,02-2393-0139,121.524586,餐飲類,,25.035614,折價,飲料店,台北市中正區信義路2段1號之1,2011/05/1起,11:00-22:00,飲品折價10元,自備飲料杯
,7-ELEVEN(台北市第十四分公司),信義區,,,02-2729-0723,121.557644,餐飲類,,25.033679,折價,便利超商,台北市信義區光復南路471號,2011/05/1起,00:00-24:00,City caf / 思樂冰 650ml以上折價2元，以下折價1元,自備飲料杯
,星巴克(舊宗門市部),內湖區,,,02-8792-8408,121.576018,餐飲類,,25.062596,折價,飲料店,台北市內湖區舊宗路1段188號1樓,2011/05/1起,11:00-22:00,飲品折價10元,自備飲料杯
,7-ELEVEN(台北市第158分公司),北投區,,,02-2894-1095,121.502609,餐飲類,,25.134887,折價,便利超商,台北市北投區光明路162、164號,2011/05/1起,00:00-24:00,City caf / 思樂冰 650ml以上折價2元，以下折價1元,自備飲料杯
,QK咖啡(台北松江店),中山區,,,02-2516-2210,121.53399,餐飲類,,25.054209,折價,飲料店,台北市中山區松江路133巷14-2號,2011/05/1起,11:00-22:00,650ml(含)以上折價2元，以下折價1元,自備飲料杯
,清心福全(台北大安敦化南店),大安區,,,02-8732-7588,121.556174,餐飲類,,25.020718,折價,飲料店,台北市大安區和平東路3段294號,2011/05/1起,11:00-22:00,650ml(含)以上折價2元，以下折價1元,自備飲料杯
,超秦(麥味登)(內湖店),內湖區,,,02-27987543,121.560791,餐飲類,,25.084747,折價,早餐店,台北市內湖區內湖路1段737巷65號,2011/09/01起,07:00-11:00,折價1元,自備飲料杯
,西雅圖咖啡(明基店),內湖區,,,02-8751-2128,121.564733,餐飲類,,25.081009,折價,飲料店,台北市內湖區基湖路18號1樓,2011/05/1起,11:00-22:00,飲品折價5元,自備飲料杯
,MisterDonuts(台北市第一三分公司),松山區,,,02-3765-5610 ,121.560632,餐飲類,,25.058822,折價,飲料店,台北市松山區民生東路5段119號,2011/05/1起,11:00-10:00,飲品折價3元(若該飲品使用優惠免費贈送者，無享折價優惠),自備飲料杯
,聖德科斯天然有機門市(花蓮中華門市),花蓮市,,,03-831-2829,121.606878,餐飲類,,23.975848,折價,其他,花蓮縣花蓮市中華路113號,2012/08/01起,07:30~21:00,自備環保杯來店購買任一現打飲品或研磨現煮有機咖啡的折價2元,自備飲料杯
,拉亞漢堡(北市三民店),松山區,,,02-27420312,121.564075,餐飲類,,25.05211,折價,早餐店,台北市松山區南京東路５段２５１巷２２弄３８號,2011/09/01起,07:00-11:00,折價1元,自備飲料杯
,呷尚寶(虎林店),信義區,,,02-87872350,121.577302,餐飲類,,25.044968,折價,早餐店,台北市信義區虎林街75號,2011/09/01起,07:00-11:00,折價1元,自備飲料杯
,7-ELEVEN(台北市第五十二分公司),文山區,,,02-2931-7358,121.538504,餐飲類,,25.003646,折價,便利超商,台北市文山區羅斯福路5段190-3號,2011/05/1起,00:00-24:00,City caf / 思樂冰 650ml以上折價2元，以下折價1元,自備飲料杯
,萊爾富(第三八三六分公司),內湖區,,,02-2658-6383,121.574702,餐飲類,,25.072641,折價,便利超商,台北市內湖區陽光街298號,2011/05/1起,00:00-24:00,Hi Caf 飲品折價3元,自備飲料杯
,巧沛國際(景美店),文山區,,,02-29302588,121.539549,餐飲類,,24.995192,折價,早餐店,台北市文山區溪口街44號,2011/09/01起,07:00-11:00,折價1元,自備飲料杯
,7-ELEVEN(台北市第一八0分公司),文山區,,,02-2936-1151,121.559929,餐飲類,,24.988586,折價,便利超商,台北市文山區木柵路2段88、90號，興隆路4段26號1樓,2011/05/1起,00:00-24:00,City caf / 思樂冰 650ml以上折價2元，以下折價1元,自備飲料杯
,7-ELEVEN(台北市第二0三分公司),松山區,,,,121.567425,餐飲類,,25.049254,折價,便利超商,台北市松山區八德路4段335號,2011/05/1起,00:00-24:00,City caf / 思樂冰 650ml以上折價2元，以下折價1元,自備飲料杯
,50嵐(捷運善導寺店),中正區,,,02-2351-8482,121.523799,餐飲類,,25.044914,折價,飲料店,台北市中正區忠孝東路1段11號,2011/05/1起,11:00-22:00,大杯折價2元，中杯折價1元,自備飲料杯
,一手私藏世界紅茶(台北站前店),中正區,,,02-2388-8010,121.513842,餐飲類,,25.046151,折價,飲料店,台北市中正區開封街1段13號,2011/05/1起,11:00-22:00,飲品折價2元,自備飲料杯
,翰林茶館(台北寶慶店),中正區,,,02-2383-0089,121.5091,餐飲類,,25.041668,折價,飲料店,台北市中正區寶慶路32號(遠東百貨B1),2011/05/1起,11:00-22:00,飲品折價2元,自備飲料杯
,全家便利商店(木康分公司),文山區,,,02-2939-9685,121.566287,餐飲類,,24.98865,折價,便利超商,台北市文山區木柵路3段53號,2011/05/1起,00:00-24:00,全家伯朗咖啡館 飲品折價3元,自備飲料杯
,日出茶太(內湖麗山店),內湖區,,,02-2627-4477,121.571576,餐飲類,,25.081138,折價,飲料店,台北市內湖區內湖路1段370號,2011/05/1起,11:00-22:00,650ml(含)以上折價2元，以下折價1元,自備飲料杯
,摩斯漢堡(西華分公司),松山區,,,02-2546-8362,121.546399,餐飲類,,25.058648,集點,速食店,台北市松山區民生東路3段113巷7弄1號,2011/05/1起,11:00-22:00,每杯1點，集5點可兌換30元商品，集10點可兌換60元商品(前述不含罐裝、瓶裝非現場填裝)飲料,自備飲料杯
,薡茶(西門店),萬華區,,,02-2388-6537,121.507401,餐飲類,,25.044449,集點,飲料店,台北市萬華區漢中街36之1號,2011/05/1起,11:00-22:00,每杯1點，集10點可兌換30元之飲品,自備飲料杯
,7-ELEVEN(六福門市),萬華區,,,02-2375-7816,121.505454,餐飲類,,25.045934,折價,便利超商,台北市萬華區漢口街2段56號,2011/05/1起,00:00-24:00,City caf / 思樂冰 650ml以上折價2元，以下折價1元,自備飲料杯
,聖德科斯天然有機門市(嘉義中山門市),東區,,,05-276-2776,120.462406,餐飲類,,23.482639,折價,其他,嘉義市東區中山路24號,2012/08/01起,07:30~21:00,自備環保杯來店購買任一現打飲品或研磨現煮有機咖啡的折價2元,自備飲料杯
,萊爾富(北市梧州店),萬華區,,,02-2336-7542,121.497722,餐飲類,,25.037494,折價,便利超商,台北市萬華區梧州街29號,2011/05/1起,00:00-24:00,Hi Caf 飲品折價3元,自備飲料杯
,全家便利商店(日津分公司),中山區,,,02-2563-5367,121.523063,餐飲類,,25.050163,折價,便利超商,台北市中山區天津街47號,2011/05/1起,00:00-24:00,全家伯朗咖啡館 飲品折價3元,自備飲料杯
,MisterDonuts(台鐵門市),中正區,,,02-2331-9635,121.515096,餐飲類,,25.047529,折價,飲料店,台北市中正區北平西路3號2樓(台北車站2樓微風三館),2011/05/1起,11:00-22:00,飲品折價3元(若該飲品使用優惠免費贈送者，無享折價優惠),自備飲料杯
,7-ELEVEN(台北市第八十一分公司),中山區,,,02-2543-4337,121.53161,餐飲類,,25.058058,折價,便利超商,台北市中山區民生東路2段113號,2011/05/1起,00:00-24:00,City caf / 思樂冰 650ml以上折價2元，以下折價1元,自備飲料杯
,7-ELEVEN(台北市第三分公司),士林區,,,02-2873-4093,121.531242,餐飲類,,25.118703,折價,便利超商,台北市士林區中山北路7段14巷2-1號,2011/05/1起,00:00-24:00,City caf / 思樂冰 650ml以上折價2元，以下折價1元,自備飲料杯
,C-Cup C+(南湖總店),內湖區,,,02-2793-0833,121.576018,餐飲類,,25.062596,集點,飲料店,台北市內湖區舊宗路1段188號(大潤發2館內),2011/05/1起,11:00-22:00,每杯1點，集10點可兌換35元以下飲品,自備飲料杯
,7-ELEVEN(台北市第四九三分公司),士林區,,,02-2888-1028,121.51586,餐飲類,,25.089542,折價,便利超商,台北市士林區大南路400、402號,2011/05/1起,00:00-24:00,City caf / 思樂冰 650ml以上折價2元，以下折價1元,自備飲料杯
,橘子工坊(台北八德店),松山區,,,02-2570-1886,121.55529,餐飲類,,25.04821,集點,飲料店,台北市松山區八德路3段161號,2011/05/1起,11:00-22:00,每杯1點，集10點可兌換30元飲品，或補差額換購30元以上飲料,自備飲料杯
,7-ELEVEN(台北市第二一二分公司),信義區,,,02-2345-0121,121.576994,餐飲類,,25.040693,折價,便利超商,台北市信義區忠孝東路5段472號1樓,2011/05/1起,00:00-24:00,City caf / 思樂冰 650ml以上折價2元，以下折價1元,自備飲料杯
,好凍吸(站前二店),中正區,,,0985-244-288,121.531857,餐飲類,,25.043522,折價,飲料店,台北市中正區八德路1段82巷9弄10號,2011/05/1起,11:00-22:00,650ml(含)以上折價2元，以下折價1元,自備飲料杯
,7-ELEVEN(台北市第三六九分公司),信義區,,,02-2749-4714,121.566426,餐飲類,,25.047383,折價,便利超商,台北市信義區東興路57號,2011/05/1起,00:00-24:00,City caf / 思樂冰 650ml以上折價2元，以下折價1元,自備飲料杯
,7-ELEVEN(台北市第三十一分公司),中山區,,,02-2541-1031,121.528851,餐飲類,,25.05221,折價,便利超商,台北市中山區南京東路2段23號1樓,2011/05/1起,00:00-24:00,City caf / 思樂冰 650ml以上折價2元，以下折價1元,自備飲料杯
,拿坡里披薩(和平店 ),大安區,,,02-2732-9977,121.538958,餐飲類,,25.025239,折價,速食店,台北市大安區和平東路2段66號(安東市場旁),2011/05/1起,11:00-22:00,飲品折價3元,自備飲料杯
,星巴克(微廣門市),大安區,,,02-8772-5686,121.544177,餐飲類,,25.04614,折價,飲料店,台北市大安區復興南路1段39號2樓(微風廣場2樓),2011/05/1起,11:00-22:00,飲品折價10元,自備飲料杯
,萊爾富(北市景福分公司),文山區,,,02-8933-1162,121.537736,餐飲類,,24.999046,折價,便利超商,台北市文山區景福街58號1樓,2011/05/1起,00:00-24:00,Hi Caf 飲品折價3元,自備飲料杯
,7-ELEVEN(台北市第六五一分公司),士林區,,,02-2872-4484,121.533244,餐飲類,,25.116888,折價,便利超商,台北市士林區天母東路50巷25號,2011/05/1起,00:00-24:00,City caf / 思樂冰 650ml以上折價2元，以下折價1元,自備飲料杯
,萊爾富(木新第二分公司),文山區,,,02-2937-6642,121.559738,餐飲類,,24.981973,折價,便利超商,台北市文山區木新路3段232巷6弄18號,2011/05/1起,00:00-24:00,Hi Caf 飲品折價3元,自備飲料杯
,瑞麟美而美(民族大同店),大同區,,,02-25927279,121.51743,餐飲類,,25.06735,折價,早餐店,台北市大同區大龍街91巷31號,2011/09/01起,07:00-11:00,折價1元,自備飲料杯
,萊爾富(北市獅子林店),萬華區,,,02-2312-0222,121.506321,餐飲類,,25.044956,折價,便利超商,台北市萬華區西寧南路36之69、71、72、73、74號,2011/05/1起,00:00-24:00,Hi Caf 飲品折價3元,自備飲料杯
,弘爺漢堡(興雅店),信義區,,,,121.570611,餐飲類,,25.046709,折價,早餐店,台北市信義區基隆路1段83巷15-2號,2011/09/01起,07:00-11:00,折價1元,自備飲料杯
,7-ELEVEN(台北市第五四三分公司),信義區,,,02-2720-7245,121.567965,餐飲類,,25.026728,折價,便利超商,台北市信義區莊敬路470號1樓,2011/05/1起,00:00-24:00,City caf / 思樂冰 650ml以上折價2元，以下折價1元,自備飲料杯
,瞬間現泡茶咖啡專賣店(*忠孝店),中正區,,,02-2357-7988,121.526931,餐飲類,,25.043728,折價,飲料店,台北市中正區忠孝東路2段2號,2011/05/1起,11:00-22:00,飲品折價2元,自備飲料杯
,萊爾富(北市同密分公司),大同區,,,02-2596-3370,121.515809,餐飲類,,25.074696,折價,便利超商,台北市大同區哈密街59巷21號1樓,2011/05/1起,00:00-24:00,Hi Caf 飲品折價3元,自備飲料杯
,7-ELEVEN(南機場門市),萬華區,,,02-2337-0695,121.504838,餐飲類,,25.029001,折價,便利超商,台北市萬華區中華路2段366號1樓,2011/05/1起,00:00-24:00,City caf / 思樂冰 650ml以上折價2元，以下折價1元,自備飲料杯
,7-ELEVEN(大潤發門市部),內湖區,,,02-2796-7031,121.578253,餐飲類,,25.061116,折價,便利超商,台北市內湖區舊宗路1段128號,2011/05/1起,00:00-24:00,City caf / 思樂冰 650ml以上折價2元，以下折價1元,自備飲料杯
,7-ELEVEN(台北市第三十分公司),松山區,,,02-2765-8249,121.566458,餐飲類,,25.051131,折價,便利超商,台北市松山區南京東路5段260號,2011/05/1起,00:00-24:00,City caf / 思樂冰 650ml以上折價2元，以下折價1元,自備飲料杯
,水巷茶弄(南港園區店),南港區,,,02-2783-2488,121.613292,餐飲類,,25.055547,折價,飲料店,台北市南港區南港路1段130號,2011/05/1起,11:00-22:00,飲品折價2元,自備飲料杯
,麥當勞(台北動物園中心2(2in1DKA)),文山區,,,02-8661-7111,121.581069,餐飲類,,24.998855,集點,速食店,台北市文山區新光路2段30號,2011/05/1起,11:00-22:00,每杯1點，集5點可兌換30元飲料1杯(奶昔、漂浮飲品及免費飲料不在集點範圍內),自備飲料杯
,摩斯漢堡(民生第二分公司),松山區,,,02-2765-6127,121.563775,餐飲類,,25.058172,集點,速食店,台北市松山區民生東路5段184號1、2樓,2011/05/1起,11:00-22:00,每杯1點，集5點可兌換30元商品，集10點可兌換60元商品(前述不含罐裝、瓶裝非現場填裝)飲料,自備飲料杯
,Subway(京華城店),松山區,,,02-8761-6630,121.562515,餐飲類,,25.048561,折價,速食店,台北市松山區八德路4段138號B3,2011/05/1起,11:00-22:00,651ml(含)以上折價3元，501至650ml折價2元，500ml(含)以下折1元,自備飲料杯
,超秦(麥味登)(松仁店),信義區,,,02-27585197,121.569051,餐飲類,,25.025213,折價,早餐店,台北市信義區松仁路232號,2011/09/01起,07:00-11:00,折價1元,自備飲料杯
,7-ELEVEN(台北市第五八一分公司),大同區,,,02-2597-9479,121.510784,餐飲類,,25.068956,折價,便利超商,台北市大同區延平北路4段6號1樓,2011/05/1起,00:00-24:00,City caf / 思樂冰 650ml以上折價2元，以下折價1元,自備飲料杯
,7-ELEVEN(台北市第四十三分公司),中山區,,,,121.522777,餐飲類,,25.066715,折價,便利超商,台北市中山區中山北路3段47號,2011/05/1起,00:00-24:00,City caf / 思樂冰 650ml以上折價2元，以下折價1元,自備飲料杯
,全家便利商店(林森南路分公司),中正區,,,02-2389-8700,121.509581,餐飲類,,25.041816,折價,便利超商,台北市中正區延平南路111號,2011/05/1起,00:00-24:00,全家伯朗咖啡館 飲品折價3元,自備飲料杯
,拉亞漢堡(北市康樂店),內湖區,,,02-26319458,121.618493,餐飲類,,25.069299,折價,早餐店,台北市內湖區康樂街56號,2011/09/01起,07:00-11:00,折價1元,自備飲料杯
,丹堤咖啡(復興長春店),松山區,,,02-8712-9581,121.544457,餐飲類,,25.055034,折價,飲料店,台北市松山區復興北路183號,2011/05/1起,11:00-22:00,飲品折價5元,自備飲料杯
,呷尚寶(康寧店),內湖區,,,02-26316082,121.612813,餐飲類,,25.070547,折價,早餐店,台北市內湖區康寧路3段189巷19號,2011/09/01起,07:00-11:00,折價1元,自備飲料杯
,巧沛國際(社子店),士林區,,,02-28131929,121.507998,餐飲類,,25.089277,折價,早餐店,台北市士林區延平北路6段116巷2弄2號之1,2011/09/01起,07:00-11:00,折價1元,自備飲料杯
,7-ELEVEN(台北市第五三五分公司),內湖區,,,02-2658-8016,121.575454,餐飲類,,25.076165,折價,便利超商,台北市內湖區江南街128號,2011/05/1起,00:00-24:00,City caf / 思樂冰 650ml以上折價2元，以下折價1元,自備飲料杯
,藍棧咖啡(台北民生示範店),松山區,,,02-2715-0852,121.54471,餐飲類,,25.056531,折價,飲料店,台北市松山區民生東路3段110巷14號,2011/05/1起,11:00-22:00,飲品折價2元,自備飲料杯
,超秦(麥味登)(世貿店),信義區,,,02-27251168,121.559793,餐飲類,,25.034645,折價,早餐店,台北市信義區基隆路1段380巷3號,2011/09/01起,07:00-11:00,折價1元,自備飲料杯
,Subway(世貿店),信義區,,,02-2729-7170,121.56224,餐飲類,,25.033729,折價,速食店,台北市信義區信義路5段5號,2011/05/1起,11:00-22:00,651ml(含)以上折價3元，501至650ml折價2元，500ml(含)以下折1元,自備飲料杯
,水巷茶弄(台北八德店),松山區,,,02-2747-8512,121.558726,餐飲類,,25.048151,折價,飲料店,台北市松山區八德路4段22號(監理站斜對面),2011/05/1起,11:00-22:00,飲品折價2元,自備飲料杯
,瑞麟美而美(台北延平阿芬店),大同區,,,02-25982578,121.511131,餐飲類,,25.076935,折價,早餐店,台北市大同區延平北路四段282巷26號,2011/09/01起,07:00-11:00,折價1元,自備飲料杯
,麥當勞(台北康寧),內湖區,,,"02-2631-1795
02-2631-1793",121.611813,餐飲類,,25.069434,集點,速食店,台北市內湖區康寧路3段168、170號1樓,2011/05/1起,11:00-22:00,每杯1點，集5點可兌換30元飲料1杯(奶昔、漂浮飲品及免費飲料不在集點範圍內),自備飲料杯
,全家便利商店(福安店分公司),大同區,,,02-2550-5051,121.518437,餐飲類,,25.054667,折價,便利超商,台北市大同區承德路2段39、41號,2011/05/1起,00:00-24:00,全家伯朗咖啡館 飲品折價3元,自備飲料杯
,全家便利商店(四維分公司),大安區,,,02-2705-7671,121.549771,餐飲類,,25.036959,折價,便利超商,台北市大安區仁愛路4段112巷5號1樓,2011/05/1起,00:00-24:00,全家伯朗咖啡館 飲品折價3元,自備飲料杯
,摩斯漢堡(景興分公司),文山區,,,02-8932-1156,121.544372,餐飲類,,24.992474,集點,速食店,台北市文山區景興路191號1樓,2011/05/1起,11:00-22:00,每杯1點，集5點可兌換30元商品，集10點可兌換60元商品(前述不含罐裝、瓶裝非現場填裝)飲料,自備飲料杯
,黑丸嫩仙草(台北汀州店),中正區,,,02-2305-8220,121.50913,餐飲類,,25.028453,折價,飲料店,台北市中正區汀洲路1段111號,2011/05/1起,11:00-22:00,飲品折價3元,自備飲料杯
,OK超商(台北萬美店),文山區,,,02-6617-2243,121.558715,餐飲類,,25.006751,折價,便利超商,台北市文山區辛亥路4段99號,2011/05/1起,00:00-24:00,OK Caf 飲品折價3元,自備飲料杯
,漢堡王(忠孝分公司),大安區,,,02-2775-2849,121.557165,餐飲類,,25.041637,集點,速食店,台北市大安區忠孝東路4段335、337號,2011/05/1起,11:00-22:00,每杯1點，集10點可兌換30元飲料1杯,自備飲料杯
,早安美芝城(士林中正店),士林區,,,02-88664099,121.521955,餐飲類,,25.094545,折價,早餐店,台北市士林區中正路342-4號,2011/09/01起,07:00-11:00,折價1元,自備飲料杯
,麥當勞(台北德行分公司),士林區,,,"02-2836-2779
02-2836-2795",121.533048,餐飲類,,25.109531,集點,速食店,台北市士林區德行東路227號1樓,2011/05/1起,11:00-22:00,每杯1點，集5點可兌換30元飲料1杯(奶昔、漂浮飲品及免費飲料不在集點範圍內),自備飲料杯
,丹堤咖啡(南京健康店),松山區,,,02-2546-6358,121.553749,餐飲類,,25.051657,折價,飲料店,台北市松山區南京東路4段75號,2011/05/1起,11:00-22:00,飲品折價5元,自備飲料杯
,摩斯漢堡(信義A11店),信義區,,,02-2758-1064,121.567208,餐飲類,,25.036004,集點,速食店,台北市信義區松壽路11號B2,2011/05/1起,11:00-22:00,每杯1點，集5點可兌換30元商品，集10點可兌換60元商品(前述不含罐裝、瓶裝非現場填裝)飲料,自備飲料杯
,全家便利商店(仟囍分公司),中正區,,,02-2314-8151,121.516361,餐飲類,,25.045487,折價,便利超商,台北市中正區許昌街26號,2011/05/1起,00:00-24:00,全家伯朗咖啡館 飲品折價3元,自備飲料杯
,大腳桶(*龍泉三號店),大安區,,,0935-665-308,121.529381,餐飲類,,25.02484,其他優惠,飲料店,台北市大安區龍泉街19號之2,2011/05/1起,11:00-22:00,中杯價格可購得大杯飲料，大杯可購得900ml飲料,自備飲料杯
,好了啦(台北基河店),士林區,,,"02-8861-5675
0939-195-590",121.522938,餐飲類,,25.089689,折價,飲料店,台北市士林區基河路181號,2011/05/1起,11:00-22:00,650ml(含)以上折價2元，以下折價1元,自備飲料杯
,日出茶太(台北市營業所),中山區,,,02-2501-8338,121.540746,餐飲類,,25.061835,折價,飲料店,台北市中山區龍江路296號,2011/05/1起,11:00-22:00,650ml(含)以上折價2元，以下折價1元,自備飲料杯
,清心福全(台北萬華寶興店),萬華區,,,02-2332-8618,121.494317,餐飲類,,25.02584,折價,飲料店,台北市萬華區寶興街94號,2011/05/1起,11:00-22:00,650ml(含)以上折價2元，以下折價1元,自備飲料杯
,水巷茶弄(台醫門市部),中正區,,,02-2388-7056,121.510798,餐飲類,,25.045289,折價,飲料店,台北市中正區漢口街1段103號,2011/05/1起,11:00-22:00,飲品折價2元,自備飲料杯
,7-ELEVEN(台北市第一七0分公司),士林區,,,02-2882-1500,121.526799,餐飲類,,25.089422,折價,便利超商,台北市士林區文林路169號,2011/05/1起,00:00-24:00,City caf / 思樂冰 650ml以上折價2元，以下折價1元,自備飲料杯
,全家便利商店(全家長城店),松山區,,,02-2717-6687,121.546253,餐飲類,,25.054374,折價,便利超商,台北市松山區敦化北路120巷80號,2011/05/1起,00:00-24:00,全家伯朗咖啡館 飲品折價3元,自備飲料杯
,都可COCO(*興隆店),文山區,,,02-2932-0082,121.555703,餐飲類,,24.999806,折價,飲料店,台北市文山區興隆路3段36巷9弄5號1樓,2011/05/1起,11:00-22:00,飲品折價2元,自備飲料杯
,全家便利商店(敦南分公司),大安區,,,02-2776-3718,121.543597,餐飲類,,25.044146,折價,便利超商,台北市大安區復興南路1段70號,2011/05/1起,00:00-24:00,全家伯朗咖啡館 飲品折價3元,自備飲料杯
,50嵐(松山店),信義區,,,02-2728-1150,121.578397,餐飲類,,25.037122,折價,飲料店,台北市信義區松山路557號,2011/05/1起,11:00-22:00,大杯折價2元，中杯折價1元,自備飲料杯
,全家便利商店(大理分公司),松山區,,,02-2715-0977,121.545096,餐飲類,,25.063534,折價,便利超商,台北市松山區民權東路3段103巷15-1號,2011/05/1起,00:00-24:00,全家伯朗咖啡館 飲品折價3元,自備飲料杯
,7-ELEVEN(台北市第四一五分公司),大安區,,,02-2705-8645,121.554234,餐飲類,,25.036558,折價,便利超商,台北市大安區仁愛路4段266巷15弄22號,2011/05/1起,00:00-24:00,City caf / 思樂冰 650ml以上折價2元，以下折價1元,自備飲料杯
,呷尚寶(八通店),中山區,,,02-25426449,121.526806,餐飲類,,25.050667,折價,早餐店,台北市中山區林森北路133巷58號,2011/09/01起,07:00-11:00,折價1元,自備飲料杯
,7-ELEVEN(國雙門市),萬華區,,,02-2339-0812,121.502573,餐飲類,,25.028041,折價,便利超商,台北市萬華區西藏路125巷17號,2011/05/1起,00:00-24:00,City caf / 思樂冰 650ml以上折價2元，以下折價1元,自備飲料杯
,頂呱呱(光復南路分公司),大安區,,,02-2771-8652,121.550666,餐飲類,,25.041682,集點,速食店,台北市大安區忠孝東路4段177號2樓,2011/05/1起,11:00-22:00,每杯1點，集5點可兌換32元飲料1杯,自備飲料杯
,7-ELEVEN(台北市第三五四分公司),文山區,,,02-2933-8701,121.544016,餐飲類,,24.992704,折價,便利超商,台北市文山區景中街45號1樓,2011/05/1起,00:00-24:00,City caf / 思樂冰 650ml以上折價2元，以下折價1元,自備飲料杯
,C-Cup C+(南港興華店),南港區,,,02-2654-7131,121.605993,餐飲類,,25.054492,集點,飲料店,台北市南港區興華路6號,2011/05/1起,11:00-22:00,每杯1點，集10點可兌換35元以下飲品,自備飲料杯
,Subway(台電店),大安區,,,02-3365-3359,121.52993,餐飲類,,25.019381,折價,速食店,台北市大安區羅斯福路3段241號1樓,2011/05/1起,11:00-22:00,651ml(含)以上折價3元，501至650ml折價2元，500ml(含)以下折1元,自備飲料杯
,全家便利商店(新生南路分公司),大安區,,,02-2784-5780,121.54375,餐飲類,,25.028234,折價,便利超商,台北市大安區復興南路2段153號,2011/05/1起,00:00-24:00,全家伯朗咖啡館 飲品折價3元,自備飲料杯
,丹堤咖啡(和平分公司),大安區,,,02-3393-8543,121.531403,餐飲類,,25.026593,折價,飲料店,台北市大安區和平東路1段159-1號,2011/05/1起,11:00-22:00,飲品折價5元,自備飲料杯
,全家便利商店(德行分公司),士林區,,,02-2831-4191,121.528267,餐飲類,,25.107906,折價,便利超商,台北市士林區德行東路109巷3號,2011/05/1起,00:00-24:00,全家伯朗咖啡館 飲品折價3元,自備飲料杯
,7-ELEVEN(台北市第三九二分公司),中山區,,,02-2515-7845,121.535118,餐飲類,,25.048482,折價,便利超商,台北市中山區長安東路2段101號,2011/05/1起,00:00-24:00,City caf / 思樂冰 650ml以上折價2元，以下折價1元,自備飲料杯
,拉亞漢堡(北市忠孝復興店),大安區,,,02-27026558,121.543923,餐飲類,,25.036557,折價,早餐店,台北市大安區復興南路1段255-1號,2011/09/01起,07:00-11:00,折價1元,自備飲料杯
,瑞麟美而美(台北武昌店),萬華區,,,02-23317942,121.511188,餐飲類,,25.04403,折價,早餐店,台北市萬華區武昌街1段52號,2011/09/01起,07:00-11:00,折價1元,自備飲料杯
,聖德科斯天然有機門市(林口文化門市),林口區,,,02-2608-6793,121.366781,餐飲類,,25.073684,折價,其他,新北市林口區文化三路一段457號,2012/08/01起,07:30~21:00,自備環保杯來店購買任一現打飲品或研磨現煮有機咖啡的折價2元,自備飲料杯
,7-ELEVEN(台北市第六八六分公司),中正區,,,02-2368-4419,121.531095,餐飲類,,25.014415,折價,便利超商,台北市中正區思源街16號,2011/05/1起,00:00-24:00,City caf / 思樂冰 650ml以上折價2元，以下折價1元,自備飲料杯
,全家便利商店(民復分公司),松山區,,,02-2712-3226,121.546031,餐飲類,,25.058659,折價,便利超商,台北市松山區民生東路3段113巷6弄1號,2011/05/1起,00:00-24:00,全家伯朗咖啡館 飲品折價3元,自備飲料杯
,麥當勞(通化店),大安區,,,02-2754-757702-2754-7617,121.543687,餐飲類,,25.025483,集點,速食店,台北市大安區復興南路2段273號,2011/05/1起,11:00-22:00,每杯1點，集5點可兌換30元飲料1杯(奶昔、漂浮飲品及免費飲料不在集點範圍內),自備飲料杯
,順興發自助餐,中山區,,,02-25062018,121.561264,餐飲類,,25.087396,折價,自助餐,臺北市中山區合江街125號,2009/11/05-2015/12/31,11:00-13:30,折價5元,自備筷子或湯匙 ; 或自備餐盒
,珍珠格格(士林格格),士林區,,,02-2882-2002,121.525584,餐飲類,,25.086473,折價,飲料店,台北市士林區文林路18號,2011/05/1起,11:00-22:00,650ml(含)以上折價2元，以下折價1元,自備飲料杯
,好了啦(天母圓環店),士林區,,,0960-732703,121.529238,餐飲類,,25.118705,折價,飲料店,台北市士林區天母西路3-13號,2011/05/1起,11:00-22:00,650ml(含)以上折價2元，以下折價1元,自備飲料杯
,丹堤咖啡(萬芳分公司),文山區,,,02-8663-6270,121.556548,餐飲類,,25.000071,折價,飲料店,台北市文山區興隆路3段73號,2011/05/1起,11:00-22:00,飲品折價5元,自備飲料杯
,7-ELEVEN(台北市第五八八分公司),內湖區,,,02-2627-0994,121.578727,餐飲類,,25.079726,折價,便利超商,台北市內湖區內湖路1段737巷35號,2011/05/1起,00:00-24:00,City caf / 思樂冰 650ml以上折價2元，以下折價1元,自備飲料杯
,全家便利商店(陽明分公司),士林區,,,02-2882-0840,121.523099,餐飲類,,25.094549,折價,便利超商,台北市士林區中正路333號,2011/05/1起,00:00-24:00,全家伯朗咖啡館 飲品折價3元,自備飲料杯
,儂特利(仁愛分公司),中正區,,,02-2391-4303,121.521979,餐飲類,,25.038524,折價,速食店,台北市中正區仁愛路1段8號,2011/05/1起,11:00-22:00,30元飲品(含)以下折價2元，以上折價3元,自備飲料杯
,珍珠格格(錦西格格),中山區,,,02-2522-2592,121.52133,餐飲類,,25.060211,折價,飲料店,台北市中山區錦西街14-1號(中山北路與天祥路間),2011/05/1起,11:00-22:00,650ml(含)以上折價2元，以下折價1元,自備飲料杯
,星巴克(*大安復興店),大安區,,,02-8772-2208,121.544177,餐飲類,,25.04614,折價,飲料店,台北市大安區復興南路1段39號(微風廣場G樓),2011/05/1起,11:00-22:00,飲品折價10元,自備飲料杯
,萊爾富(銘傳店),士林區,,,02-2883-8738,121.527633,餐飲類,,25.087388,折價,便利超商,(112)台北市士林區中山北路5段250號,2011/05/1起,00:00-24:00,Hi Caf 飲品折價3元,自備飲料杯
,OK超商(第127分公司),信義區,,,02-6617-1738,121.55637,餐飲類,,25.021833,折價,便利超商,台北市信義區富陽街70號,2011/05/1起,00:00-24:00,OK Caf 飲品折價3元,自備飲料杯
,漢爾斯(微風店),大安區,,,02-8772-0887,121.544177,餐飲類,,25.04614,折價,飲料店,台北市大安區復興南路1段39號B1(微風本館),2011/05/1起,11:00-22:00,飲品折價2元,自備飲料杯
,全家便利商店(金磚分公司),中山區,,,02-2599-4347,121.524396,餐飲類,,25.065387,折價,便利超商,台北市中山區雙城街19巷2號,2011/05/1起,00:00-24:00,全家伯朗咖啡館 飲品折價3元,自備飲料杯
,摩斯漢堡(民生東路分公司),松山區,,,02-2747-0533,121.555662,餐飲類,,25.058533,集點,速食店,台北市松山區民生東路5段1號,2011/05/1起,11:00-22:00,每杯1點，集5點可兌換30元商品，集10點可兌換60元商品(前述不含罐裝、瓶裝非現場填裝)飲料,自備飲料杯
,呷尚寶(萬金店),中山區,,,02-25235283,121.520746,餐飲類,,25.049937,折價,早餐店,台北市中山區長安西路24號,2011/09/01起,07:00-11:00,折價1元,自備飲料杯
,早安美芝城(和平分店),大安區,,,02-27353683,121.553011,餐飲類,,25.020417,折價,早餐店,台北市大安區和平東路3段228巷49號,2011/09/01起,07:00-11:00,折價1元,自備飲料杯
,好了啦(永吉店),信義區,,,0920-529-377,121.568832,餐飲類,,25.04225,折價,飲料店,台北市信義區永吉路30巷157弄2號,2011/05/1起,11:00-22:00,650ml(含)以上折價2元，以下折價1元,自備飲料杯
,7-ELEVEN(台北市第五三四分公司),文山區,,,02-8931-6863,121.544545,餐飲類,,24.997875,折價,便利超商,台北市文山區景興路14號1樓,2011/05/1起,00:00-24:00,City caf / 思樂冰 650ml以上折價2元，以下折價1元,自備飲料杯
,星巴克(統豐門市),信義區,,,02-2746-6635,121.566647,餐飲類,,25.04688,折價,飲料店,台北市信義區東興路65號1樓,2011/05/1起,11:00-22:00,飲品折價10元,自備飲料杯
,全家便利商店(東寶分公司),松山區,,,02-2750-0001,121.544923,餐飲類,,25.048339,折價,便利超商,台北市松山區長安東路2段219號,2011/05/1起,00:00-24:00,全家伯朗咖啡館 飲品折價3元,自備飲料杯
,清心福全(台北中山松江店),中山區,,,02-2504-2858,121.534056,餐飲類,,25.060463,折價,飲料店,台北市中山區錦州街247號,2011/05/1起,11:00-22:00,650ml(含)以上折價2元，以下折價1元,自備飲料杯
,拉亞漢堡(北市南港店),南港區,,,02-26513356,121.613409,餐飲類,,25.055503,折價,早餐店,台北市南港區南港路1段124號,2011/09/01起,07:00-11:00,折價1元,自備飲料杯
,7-ELEVEN(桂林門市),萬華區,,,02-2304-0689,121.497782,餐飲類,,25.038438,折價,便利超商,台北市萬華區桂林路160號,2011/05/1起,00:00-24:00,City caf / 思樂冰 650ml以上折價2元，以下折價1元,自備飲料杯
,全家便利商店(景和分公司),文山區,,,02-89319847,121.539908,餐飲類,,24.991463,折價,便利超商,台北市文山區羅斯福路6段274號,2011/05/1起,00:00-24:00,全家伯朗咖啡館 飲品折價3元,自備飲料杯
,茶樂町(台北松山饒河店),松山區,,,02-2717-5111,121.554797,餐飲類,,25.05183,集點,飲料店,台北市松山區南京東路4段111號1樓,2011/05/1起,11:00-22:00,每杯1點，集10點可兌換或折抵40元之店內飲品,自備飲料杯
,OK超商(第003分公司),內湖區,,,02-2631-6200,121.612232,餐飲類,,25.071416,折價,便利超商,台北市內湖區康寧路3段189巷21弄26號,2011/05/1起,00:00-24:00,OK Caf 飲品折價3元,自備飲料杯
,全家便利商店(向陽分公司),南港區,,,02-2788-7390,121.595932,餐飲類,,25.055089,折價,便利超商,台北市南港區重陽路16號,2011/05/1起,00:00-24:00,全家伯朗咖啡館 飲品折價3元,自備飲料杯
,聖德科斯天然有機門市(高美館門市),鼓山區,,,07-586-8888,120.284724,餐飲類,,22.65243,折價,其他,高雄市鼓山區美術南二路248號,2012/08/01起,07:30~21:00,自備環保杯來店購買任一現打飲品或研磨現煮有機咖啡的折價2元,自備飲料杯
,7-ELEVEN(台北市第三一0分公司),中正區,,,,121.522026,餐飲類,,25.043966,折價,便利超商,台北市中正區青島東路5-7號,2011/05/1起,00:00-24:00,City caf / 思樂冰 650ml以上折價2元，以下折價1元,自備飲料杯
,喫茶趣(大直店),中山區,,,02-8502-0608,121.556144,餐飲類,,25.080411,折價,飲料店,台北市中山區敬業三路123號,2011/05/1起,11:00-22:00,500ml折價2元,自備飲料杯
,全家便利商店(全家敦北店),松山區,,,02-2721-6214,121.547666,餐飲類,,25.050241,折價,便利超商,台北市松山區敦化北路4巷16號1樓,2011/05/1起,00:00-24:00,全家伯朗咖啡館 飲品折價3元,自備飲料杯
,清心福全(台北大安店),大安區,,,02-2778-0058,121.552843,餐飲類,,25.040069,折價,飲料店,台北市大安區忠孝東路4段216巷26-1號,2011/05/1起,11:00-22:00,650ml(含)以上折價2元，以下折價1元,自備飲料杯
,萊爾富(北市馬偕分公司),中山區,,,02-2511-8262,121.521668,餐飲類,,25.058141,折價,便利超商,台北市中山區民生西路3巷2號,2011/05/1起,00:00-24:00,Hi Caf 飲品折價3元,自備飲料杯
,全家便利商店(復盛分公司),松山區,,,02-2765-3580,121.566165,餐飲類,,25.057834,折價,便利超商,台北市松山區新東街14號1樓,2011/05/1起,00:00-24:00,全家伯朗咖啡館 飲品折價3元,自備飲料杯
,7-ELEVEN(台北市第一二二分公司),大安區,,,02-2362-5327,121.535972,餐飲類,,25.025695,折價,便利超商,台北市大安區和平東路2段18號,2011/05/1起,00:00-24:00,City caf / 思樂冰 650ml以上折價2元，以下折價1元,自備飲料杯
,西雅圖咖啡(內湖行忠店),內湖區,,,02-2792-0817,121.576631,餐飲類,,25.06493,折價,飲料店,台北市內湖區行忠路6號,2011/05/1起,11:00-22:00,飲品折價5元,自備飲料杯
,50嵐(林森店),中山區,,,02-2523-6047,121.524957,餐飲類,,25.05,折價,飲料店,台北市中山區林森北路93號,2011/05/1起,11:00-22:00,大杯折價2元，中杯折價1元,自備飲料杯
,怡客咖啡(台北漢口分公司),中正區,,,02-2396-6425,121.52091,餐飲類,,25.032899,折價,飲料店,台北市中正區愛國東路100號,2011/05/1起,11:00-22:00,飲品折價5元，若與店內其它優惠用折價1元,自備飲料杯
,7-ELEVEN(台北市第四八二分公司),大安區,,,02-2378-2716,121.556558,餐飲類,,25.028121,折價,便利超商,台北市大安區基隆路2段142-2號,2011/05/1起,00:00-24:00,City caf / 思樂冰 650ml以上折價2元，以下折價1元,自備飲料杯
,橘子(錦州店),中山區,,,02-2506-1146,121.53516,餐飲類,,25.060393,集點,飲料店,台北市中山區錦州街267號,2011/05/1起,11:00-22:00,每杯1點，集5點可兌換15元飲品，或加價換購其他飲品(果汁除外),自備飲料杯
,7-ELEVEN(台北市第二十八分公司),松山區,,,02-2715-1339,121.546999,餐飲類,,25.060103,折價,便利超商,台北市松山區敦化北路222巷50、52號,2011/05/1起,00:00-24:00,City caf / 思樂冰 650ml以上折價2元，以下折價1元,自備飲料杯
,萊爾富(第2858分公司),大安區,,,02-2700-9632,121.54397,餐飲類,,25.035928,折價,便利超商,台北市大安區復興南路1段265號1樓,2011/05/1起,00:00-24:00,Hi Caf 飲品折價3元,自備飲料杯
,全家便利商店(萬隆分公司),文山區,,,02-89318748,121.539445,餐飲類,,25.001349,折價,便利超商,台北市文山區羅斯福路5段263號,2011/05/1起,00:00-24:00,全家伯朗咖啡館 飲品折價3元,自備飲料杯
,台北牛乳大王(大龍分公司),大同區,,,02-2559-6363,121.520018,餐飲類,,25.052575,集點,飲料店,台北市大同區南京西路20、22號,2011/05/1起,11:00-22:00,每杯1點，集10點可兌換50元飲料1杯，或補差額兌換其它飲料1杯,自備飲料杯
,萊爾富(湖潤店),內湖區,,,02-2793-3092,121.576018,餐飲類,,25.062596,折價,便利超商,台北市內湖區舊宗路1段188號,2011/05/1起,00:00-24:00,Hi Caf 飲品折價3元,自備飲料杯
,星巴克(館前漢口門市),中正區,,,02-2331-0893,121.514872,餐飲類,,25.044812,折價,飲料店,台北市中正區館前路26號1樓,2011/05/1起,11:00-22:00,飲品折價10元,自備飲料杯
,梅門食踐堂,信義區,,,02-87292734,121.568291,餐飲類,,25.03928,贈送餐飲,素食店,臺北市信義區松仁路28號B2,2012/09/01-2013/12/31,11:00~22:00,贈送手工點心(凡來店外帶自備餐盒者，皆享優惠),自備外帶餐盒
,艾卡卜(台北市民分公司),中正區,,,02-2393-3222,121.526805,餐飲類,,25.041314,折價,飲料店,台北市中正區濟南路2段6號-1,2011/05/1起,11:00-22:00,650ml(含)以上折價2元，以下折價1元,自備飲料杯
,丹堤咖啡(內湖分公司),內湖區,,,02-8751-3467,121.577099,餐飲類,,25.074052,折價,飲料店,台北市內湖區瑞光路188巷38號,2011/05/1起,11:00-22:00,飲品折價5元,自備飲料杯
,漢爾斯(信義威秀店),信義區,,,02-2723-3130,121.567099,餐飲類,,25.035636,折價,飲料店,台北市信義區松壽路20號2樓(華納威秀),2011/05/1起,11:00-22:00,飲品折價2元,自備飲料杯
,摩斯漢堡(大安店),大安區,,,02-2703-9611,121.546064,餐飲類,,25.034135,集點,速食店,台北市大安區大安路1段237號,2011/05/1起,11:00-22:00,每杯1點，集5點可兌換30元商品，集10點可兌換60元商品(前述不含罐裝、瓶裝非現場填裝)飲料,自備飲料杯
,休閒小站(*南京店),中山區,,,02-2523-9002,121.52697,餐飲類,,25.05062,折價,飲料店,台北市中山區南京東路1段132巷31號1樓,2011/05/1起,11:00-22:00,650ml(含)以上折價2元，以下折價1元,自備飲料杯
,85度C(台北安和店),大安區,,,02-2704-3299 ,121.552209,餐飲類,,25.031078,折價,飲料店,台北市大安區安和路2段52號,2011/05/1起,11:00-22:00,飲品折價3元,自備飲料杯
,85度C(台北寶興店),萬華區,,,02-2332-8882 ,121.494298,餐飲類,,25.025882,折價,飲料店,台北市萬華區寶興街92號,2011/05/1起,11:00-22:00,飲品折價3元,自備飲料杯
,麥當勞(內湖成功二),內湖區,,,"02-2790-2431
02-2795-5748",121.59375,餐飲類,,25.083569,集點,速食店,台北市內湖區成功路4段180號,2011/05/1起,11:00-22:00,每杯1點，集5點可兌換30元飲料1杯(奶昔、漂浮飲品及免費飲料不在集點範圍內),自備飲料杯
,50嵐(永康店),大安區,,,02-2395-2000,121.529381,餐飲類,,25.031278,折價,飲料店,台北市大安區永康街14巷2號,2011/05/1起,11:00-22:00,大杯折價2元，中杯折價1元,自備飲料杯
,呷尚寶(復興店),大安區,,,02-27086311,121.544747,餐飲類,,25.032914,折價,早餐店,台北市大安區信義路4段30巷3號,2011/09/01起,07:00-11:00,折價1元,自備飲料杯
,全國素食(復興店),大安區,,,02-27361168,121.543202,餐飲類,,25.023531,贈品;集點,素食,臺北市大安區復興南路2段314號,2012/08/01-2013/02/28,10:30~20:30,來店消費滿百送一點，集滿12點送特製便當盒1個,自備餐盒
,7-ELEVEN(園舺門市),萬華區,,,02-2308-6420,121.494908,餐飲類,,25.031538,折價,便利超商,台北市萬華區西園路2段140巷52號,2011/05/1起,00:00-24:00,City caf / 思樂冰 650ml以上折價2元，以下折價1元,自備飲料杯
,全家便利商店(文化分公司),北投區,,,02-2897-6316,121.495158,餐飲類,,25.136842,折價,便利超商,台北市北投區中央北路2段97號,2011/05/1起,00:00-24:00,全家伯朗咖啡館 飲品折價3元,自備飲料杯
,全家便利商店(瑞和分公司),大安區,,,02-2731-8185,121.536969,餐飲類,,25.040835,折價,便利超商,台北市大安區建國南路1段156、158號1樓,2011/05/1起,00:00-24:00,全家伯朗咖啡館 飲品折價3元,自備飲料杯
,天仁喫茶趣(台北西門店),萬華區,,,02-2311-9902,121.506469,餐飲類,,25.04275,折價,飲料店,台北市萬華區成都路45號(紅樓戲院斜對面),2011/05/1起,11:00-22:00,500ml折價2元,自備飲料杯
,早安美芝城(台北孔廟店),大同區,,,02-25959880,121.515606,餐飲類,,25.071885,折價,早餐店,台北市大同區酒泉街62號,2011/09/01起,07:00-11:00,折價1元,自備飲料杯
,拿坡里披薩(大直店),中山區,,,02-2532-7161,121.547536,餐飲類,,25.080151,折價,速食店,台北市中山區北安路539號之2,2011/05/1起,11:00-22:00,飲品折價3元,自備飲料杯
,7-ELEVEN(台北市第一八九分公司),信義區,,,02-8787-4152,121.577308,餐飲類,,25.044707,折價,便利超商,台北市信義區虎林街85號,2011/05/1起,00:00-24:00,City caf / 思樂冰 650ml以上折價2元，以下折價1元,自備飲料杯
,全家便利商店(忠誠分公司),士林區,,,02-2838-0368,121.526724,餐飲類,,25.10406,折價,便利超商,台北市士林區中山北路6段20號,2011/05/1起,00:00-24:00,全家伯朗咖啡館 飲品折價3元,自備飲料杯
,7-ELEVEN(台北市第二九九分公司),中山區,,,02-2502-4233,121.533371,餐飲類,,25.061419,折價,便利超商,台北市中山區松江路305號,2011/05/1起,00:00-24:00,City caf / 思樂冰 650ml以上折價2元，以下折價1元,自備飲料杯
,摩斯漢堡(文大門市部),士林區,,,02-2861-8029,121.540962,餐飲類,,25.137688,集點,速食店,台北市士林區華岡路55號(文化大學大雅館5樓),2011/05/1起,11:00-22:00,每杯1點，集5點可兌換30元商品，集10點可兌換60元商品(前述不含罐裝、瓶裝非現場填裝)飲料,自備飲料杯
,全家便利商店(摩天分公司),中正區,,,02-2388-1469,121.51622,餐飲類,,25.044802,折價,便利超商,台北市中正區信陽街15號,2011/05/1起,00:00-24:00,全家伯朗咖啡館 飲品折價3元,自備飲料杯
,呷尚寶(中山店),中山區,,,02-25712265,121.524241,餐飲類,,25.061592,折價,早餐店,台北市中山區中山北路2段137巷18-8號,2011/09/01起,07:00-11:00,折價1元,自備飲料杯
,85度C(台北信義店),信義區,,,02-2346-3088,121.577887,餐飲類,,25.035965,折價,飲料店,台北市信義區信義路6段112號,2011/05/1起,11:00-22:00,飲品折價3元,自備飲料杯
,拉亞漢堡(景美萬慶店),文山區,,,02-86638748,121.539716,餐飲類,,24.992317,折價,早餐店,台北市文山區萬慶街23巷1號,2011/09/01起,07:00-11:00,折價1元,自備飲料杯
,早安美芝城(北投尊賢店),北投區,,,02-28277210,121.507834,餐飲類,,25.11617,折價,早餐店,台北市北投區尊賢街230巷2號,2011/09/01起,07:00-11:00,折價1元,自備飲料杯
,丹堤咖啡(士東分公司),士林區,,,02-8866-1436,121.530379,餐飲類,,25.112271,折價,飲料店,台北市士林區士東路130號,2011/05/1起,11:00-22:00,飲品折價5元,自備飲料杯
,傳奇18度C(公館店),大安區,,,02-2369-8768,121.532401,餐飲類,,25.016277,折價,飲料店,台北市大安區羅斯福路3段286巷3號,2011/05/1起,11:00-22:00,500ml折價1元，700ml折價2元，960ml折價5元,自備飲料杯
,咖比茶(忠延店),大安區,,,02-2708-9235,121.538816,餐飲類,,25.025319,集點,飲料店,台北市大安區和平東路2段64號,2011/05/1起,11:00-22:00,每杯1點，集5點可兌換25元飲料一杯,自備飲料杯
,呷尚寶(東華店),北投區,,,02-28212213,121.518459,餐飲類,,25.110911,折價,早餐店,台北市北投區東華街1段402號,2011/09/01起,07:00-11:00,折價1元,自備飲料杯
,瑞麟美而美(民權六店),內湖區,,,02-26337571,121.605447,餐飲類,,25.072313,折價,早餐店,台北市內湖區民權東路6段286號,2011/09/01起,07:00-11:00,折價1元,自備飲料杯
,早安美芝城(圓山捷運店),大同區,,,02-25975700,121.519566,餐飲類,,25.070567,折價,早餐店,台北市大同區酒泉街22號,2011/09/01起,07:00-11:00,折價1元,自備飲料杯
,摩斯漢堡(興隆分公司),文山區,,,02-2930-6977,121.555676,餐飲類,,25.00015,集點,速食店,台北市文山區興隆路3段44號,2011/05/1起,11:00-22:00,每杯1點，集5點可兌換30元商品，集10點可兌換60元商品(前述不含罐裝、瓶裝非現場填裝)飲料,自備飲料杯
,7-ELEVEN(台北市第二三五分公司),內湖區,,,02-2627-4816,121.571208,餐飲類,,25.082597,折價,便利超商,台北市內湖區內湖路1段411巷19弄1號,2011/05/1起,00:00-24:00,City caf / 思樂冰 650ml以上折價2元，以下折價1元,自備飲料杯
,萊爾富(第2975分公司),大安區,,,02-2356-7848,121.527084,餐飲類,,25.031923,折價,便利超商,台北市大安區金山南路2段69、71號1樓,2011/05/1起,00:00-24:00,Hi Caf 飲品折價3元,自備飲料杯
,清心福全(台北大安正聲店),大安區,,,02-2362-2008,121.528,餐飲類,,25.023985,折價,飲料店,台北市大安區師大路68巷2之1號,2011/05/1起,11:00-22:00,650ml(含)以上折價2元，以下折價1元,自備飲料杯
,壹咖啡(內湖康寧),內湖區,,,02-2794-8401,121.591203,餐飲類,,25.081907,折價,飲料店,台北市內湖區成功路4段20巷29號(中國醫藥學院旁),2011/05/1起,11:00-22:00,飲品折價2元，可與其他優惠並行但不折抵現金,自備飲料杯
,7-ELEVEN(台北市第三六三分公司),大安區,,,02-2775-2026,121.556961,餐飲類,,25.042381,折價,便利超商,台北市大安區光復南路180巷12號1樓,2011/05/1起,00:00-24:00,City caf / 思樂冰 650ml以上折價2元，以下折價1元,自備飲料杯
,呷尚寶(德行店),士林區,,,02-28333741,121.527941,餐飲類,,25.107679,折價,早餐店,台北市士林區德行東路97號,2011/09/01起,07:00-11:00,折價1元,自備飲料杯
,7-ELEVEN(台北市第六0九分公司),信義區,,,02-8789-1891,121.558423,餐飲類,,25.036561,折價,便利超商,台北市信義區光復南路419巷41號,2011/05/1起,00:00-24:00,City caf / 思樂冰 650ml以上折價2元，以下折價1元,自備飲料杯
,麥當勞(台北木柵分公司),文山區,,,"02-2939-4168
02-2939-4165",121.566524,餐飲類,,24.988704,集點,速食店,台北市文山區木柵路3段57號1樓,2011/05/1起,11:00-22:00,每杯1點，集5點可兌換30元飲料1杯(奶昔、漂浮飲品及免費飲料不在集點範圍內),自備飲料杯
,MisterDonuts(天母東門市),士林區,,,02-2874-9183,121.533851,餐飲類,,25.117926,折價,飲料店,台北市士林區天母東路68號3樓(三越天母店B棟),2011/05/1起,11:00-10:00,飲品折價3元(若該飲品使用優惠免費贈送者，無享折價優惠),自備飲料杯
,7-ELEVEN(新東帝門市部),大安區,,,02-2702-5349,121.549044,餐飲類,,25.029112,折價,便利超商,台北市大安區敦化南路2段97號,2011/05/1起,00:00-24:00,City caf / 思樂冰 650ml以上折價2元，以下折價1元,自備飲料杯
,橘子工坊(遼寧店),中山區,,,02-2752-2200,121.542207,餐飲類,,25.048034,集點,飲料店,台北市中山區遼寧街29號,2011/05/1起,11:00-22:00,每杯1點，集10點可兌換30元飲品，或補差額換購30元以上飲料,自備飲料杯
,7-ELEVEN(台北市第四二六分公司),士林區,,,02-2835-8739,121.522372,餐飲類,,25.102057,折價,便利超商,台北市士林區福國路94號1樓,2011/05/1起,00:00-24:00,City caf / 思樂冰 650ml以上折價2元，以下折價1元,自備飲料杯
,萊爾富(北市永捷店),中山區,,,02-2504-8276,121.533234,餐飲類,,25.047162,折價,便利超商,台北市中山區松江路27號,2011/05/1起,00:00-24:00,Hi Caf 飲品折價3元,自備飲料杯
,瑞麟美而美(台北麗水店),大安區,,,02-23913621,121.528823,餐飲類,,25.030629,折價,早餐店,台北市大安區麗水街9巷1號,2011/09/01起,07:00-11:00,折價1元,自備飲料杯
,7-ELEVEN(台北市第167分公司),大同區,,,02-2552-2615,121.510297,餐飲類,,25.051982,折價,便利超商,台北市大同區長安西路342號,2011/05/1起,00:00-24:00,City caf / 思樂冰 650ml以上折價2元，以下折價1元,自備飲料杯
,瑞麟美而美(錦州店),中山區,,,02-25618022,121.525273,餐飲類,,25.060216,折價,早餐店,台北市中山區錦州街38號,2011/09/01起,07:00-11:00,折價1元,自備飲料杯
,壹咖啡(大直北安),中山區,,,02-8509-1636,121.54879,餐飲類,,25.082702,折價,飲料店,台北市中山區北安路615號,2011/05/1起,11:00-22:00,飲品折價2元，可與其他優惠並行但不折抵現金,自備飲料杯
,50嵐(萬隆店),文山區,,,02-2930-4678,121.539137,餐飲類,,25.002152,折價,飲料店,台北市文山區羅斯福路5段217號,2011/05/1起,11:00-22:00,大杯折價2元，中杯折價1元,自備飲料杯
,全家便利商店(農安分公司),中山區,,,02-2504-2520,121.534933,餐飲類,,25.06477,折價,便利超商,台北市中山區農安街249號,2011/05/1起,00:00-24:00,全家伯朗咖啡館 飲品折價3元,自備飲料杯
,拿坡里披薩(天母分公司),北投區,,,02-2873-5600,121.523547,餐飲類,,25.118896,折價,速食店,台北市北投區天母西路109號,2011/05/1起,11:00-22:00,飲品折價3元,自備飲料杯
,7-ELEVEN(台北市第一六0分公司),大安區,,,02-2754-9832,121.5384,餐飲類,,25.028706,折價,便利超商,台北市大安區建國南路2段151巷6、8號,2011/05/1起,00:00-24:00,City caf / 思樂冰 650ml以上折價2元，以下折價1元,自備飲料杯
,奉茶(台北京站),大同區,,,02-2552-6357,121.518569,餐飲類,,25.048786,折價,飲料店,台北市大同區市民大道1段209號1樓,2011/05/1起,11:00-22:00,飲品折價2元,自備飲料杯
,清心福全(通化),大安區,,,02-2358-2277,121.527315,餐飲類,,25.033194,折價,飲料店,台北市大安區金山南路2段23號,2011/05/1起,11:00-22:00,650ml(含)以上折價2元，以下折價1元,自備飲料杯
,超秦(麥味登)(金湖店),內湖區,,,02-26316687,121.603301,餐飲類,,25.073349,折價,早餐店,台北市內湖區金湖路375號,2011/09/01起,07:00-11:00,折價1元,自備飲料杯
,7-ELEVEN(統威門市),松山區,,,02-2748-1762,121.565443,餐飲類,,25.050065,折價,便利超商,台北市松山區東興路13-1號,2011/05/1起,00:00-24:00,City caf / 思樂冰 650ml以上折價2元，以下折價1元,自備飲料杯
,木茶舖(北投店),北投區,,,02-2823-2133,121.50679,餐飲類,,25.118156,折價,飲料店,台北市北投區尊賢街308號,2011/05/1起,11:00-22:00,飲品折價2元,自備飲料杯
,翰林茶館(富邦momo店),松山區,,,02-2717-1569,121.548121,餐飲類,,25.051877,折價,飲料店,台北市松山區南京東路3段337號B2(momo百貨),2011/05/1起,11:00-22:00,飲品折價2元,自備飲料杯
,天仁喫茶趣(喫茶趣衡陽店),中正區,,,02-2312-2828,121.5118,餐飲類,,25.042156,折價,飲料店,台北市中正區衡陽路62號(近博愛路，西門站4號口),2011/05/1起,11:00-22:00,500ml折價2元,自備飲料杯
,全家便利商店(羅中分公司),大安區,,,02-2732-8982,121.554848,餐飲類,,25.026626,折價,便利超商,台北市大安區基隆路2段172號,2011/05/1起,00:00-24:00,全家伯朗咖啡館 飲品折價3元,自備飲料杯
,漢堡王(劍南門市部),中山區,,,02-8502-7128,121.555941,餐飲類,,25.083639,集點,速食店,台北市中山區敬業三路11號1樓,2011/05/1起,11:00-22:00,每杯1點，集10點可兌換30元飲料1杯,自備飲料杯
,摩斯漢堡(忠孝第二分公司),大安區,,,02-2392-4364,121.531803,餐飲類,,25.042442,集點,速食店,台北市大安區忠孝東路2段132號,2011/05/1起,11:00-22:00,每杯1點，集5點可兌換30元商品，集10點可兌換60元商品(前述不含罐裝、瓶裝非現場填裝)飲料,自備飲料杯
,喫茶趣(總公司門市部),中山區,,,02-2781-4649,121.543879,餐飲類,,25.051297,折價,飲料店,台北市中山區復興北路84號(近南京東路),2011/05/1起,11:00-22:00,500ml折價2元,自備飲料杯
,水巷茶弄(*寧波店),中正區,,,02-3322-1778,121.51732,餐飲類,,25.030672,折價,飲料店,台北市中正區寧波西街61號,2011/05/1起,11:00-22:00,飲品折價2元,自備飲料杯
,COME  BUY(八德光華),中正區,,,02-2341-6652,121.532187,餐飲類,,25.043577,集點,飲料店,台北市中正區八德路1段82巷18號之1,2011/05/1起,11:00-22:00,每杯1點，集10點可兌換30元飲品1杯,自備飲料杯
,全家便利商店(豐華分公司),松山區,,,02-2767-7510,121.563331,餐飲類,,25.061085,折價,便利超商,台北市松山區三民路148號,2011/05/1起,00:00-24:00,全家伯朗咖啡館 飲品折價3元,自備飲料杯
,西雅圖咖啡(振興店),北投區,,,02-2827-5000,121.522527,餐飲類,,25.117447,折價,飲料店,台北市北投區振興街45號(振興醫院生活廣場1樓),2011/05/1起,11:00-22:00,飲品折價5元,自備飲料杯
,手作功夫茶(木柵保儀店),文山區,,,02-2939-7625,121.568513,餐飲類,,24.988258,折價,飲料店,台北市文山區保儀路30號,2011/05/1起,11:00-22:00,650ml折價2元，500及360ml折價1元,自備飲料杯
,呷尚寶(一江店),中山區,,,02-25636807,121.531399,餐飲類,,25.053964,折價,早餐店,台北市中山區一江街44號,2011/09/01起,07:00-11:00,折價1元,自備飲料杯
,IS COFFEE(公館溫州店),大安區,,,02-2368-2772 ,121.531224,餐飲類,,25.018711,折價,飲料店,台北市大安區羅斯福路3段283巷7弄10號1樓,2011/05/1起,11:00-22:00,飲品折價5元,自備飲料杯
,宥祐素食坊,中正區,,,02-2331-0431,121.515583,餐飲類,,25.046575,折價,素食,臺北市中正區忠孝西路一段50-1號(地下街17-3號),2012/06/26-2012/12/26,10:30-21:30,"自備筷子折價3元,自備碗折價5元",自備餐具
,7-ELEVEN(台北市第三六一分公司),大安區,,,02-2755-2540,121.537272,餐飲類,,25.036371,折價,便利超商,台北市大安區建國南路1段274號,2011/05/1起,00:00-24:00,City caf / 思樂冰 650ml以上折價2元，以下折價1元,自備飲料杯
,聖德科斯天然有機門市(苗栗縣府門市),苗栗市,,,037-330-470,120.817709,餐飲類,,24.561018,折價,其他,苗栗縣苗栗市饒平街24號1樓,2012/08/01起,07:30~21:00,自備環保杯來店購買任一現打飲品或研磨現煮有機咖啡的折價2元,自備飲料杯
,快樂地水果吧(統一阪急店),信義區,,,02-2725-3006,121.565396,餐飲類,,25.040846,折價,飲料店,台北市信義區忠孝東路5段8號(統一阪急),2011/05/1起,11:00-22:00,飲品折價2元,自備飲料杯
,7-ELEVEN(台北市第五四九分公司),中山區,,,02-2518-4764,121.53346,餐飲類,,25.06398,折價,便利超商,台北市中山區松江路363號1樓,2011/05/1起,00:00-24:00,City caf / 思樂冰 650ml以上折價2元，以下折價1元,自備飲料杯
,清心福全(台北中正青島東店),中正區,,,02-3322-5069,121.526466,餐飲類,,25.04309,折價,飲料店,台北市中正區杭州南路1段10號,2011/05/1起,11:00-22:00,650ml(含)以上折價2元，以下折價1元,自備飲料杯
,萊爾富(北市民東分公司),內湖區,,,02-2793-1697,121.587675,餐飲類,,25.069392,折價,便利超商,台北市內湖區民權東路6段69、71、75號1樓,2011/05/1起,00:00-24:00,Hi Caf 飲品折價3元,自備飲料杯
,星巴克(台北市第六十二分公司),士林區,,,02-2883-1657,121.525897,餐飲類,,25.095141,折價,飲料店,台北市士林區中正路239號(近士林捷運站出口),2011/05/1起,11:00-22:00,飲品折價10元,自備飲料杯
,全家便利商店(大同分公司),北投區,,,02-2891-9974,121.497334,餐飲類,,25.13213,折價,便利超商,台北市北投區大業路452巷31號,2011/05/1起,00:00-24:00,全家伯朗咖啡館 飲品折價3元,自備飲料杯
,7-ELEVEN(台北市第二四三分公司),信義區,,,02-8786-7692,121.561036,餐飲類,,25.031145,折價,便利超商,台北市信義區莊敬路178巷2號1樓,2011/05/1起,00:00-24:00,City caf / 思樂冰 650ml以上折價2元，以下折價1元,自備飲料杯
,鮮芋仙(中正南門店),中正區,,,02-3322-2616,121.518563,餐飲類,,25.03185,折價,飲料店,台北市中正區羅斯福路1段20號之6-20號之12(近南門市場),2011/05/1起,11:00-22:00,650ml(含)以上折價2元，以下折價1元,自備飲料杯
,瑞麟美而美(台北台安店),松山區,,,02-27718455,121.547053,餐飲類,,25.04881,折價,早餐店,台北市松山區八德路二段437巷1弄1號,2011/09/01起,07:00-11:00,折價1元,自備飲料杯
,全家便利商店(金石門市部),北投區,,,02-2821-0705,121.515136,餐飲類,,25.115078,折價,便利超商,台北市北投區石牌路1段200號,2011/05/1起,00:00-24:00,全家伯朗咖啡館 飲品折價3元,自備飲料杯
,全家便利商店(延孝分公司),大安區,,,02-2701-9097,121.550372,餐飲類,,25.033997,折價,便利超商,台北市大安區安和路1段112巷27號,2011/05/1起,00:00-24:00,全家伯朗咖啡館 飲品折價3元,自備飲料杯
,Subway(民權龍江店),中山區,,,02-2515-7231,121.541459,餐飲類,,25.062572,折價,速食店,台北市中山區民權東路3段15號1樓,2011/05/1起,11:00-22:00,651ml(含)以上折價3元，501至650ml折價2元，500ml(含)以下折1元,自備飲料杯
,7-ELEVEN(台北市第五三六分公司),南港區,,,02-2785-1509,121.610623,餐飲類,,25.03384,折價,便利超商,台北市南港區研究院路3段234號1樓,2011/05/1起,00:00-24:00,City caf / 思樂冰 650ml以上折價2元，以下折價1元,自備飲料杯
,cama現烘咖啡專賣店(南京店),松山區,,,02-2570-8800,121.554505,餐飲類,,25.051416,折價,飲料店,台北市松山區南京東路4段108號,2011/05/1起,11:00-22:00,飲品折價1元,自備飲料杯
,西雅圖咖啡(仁愛敦南),大安區,,,02-2739-7775,121.549033,餐飲類,,25.026574,折價,飲料店,台北市大安區敦化南路2段203號1樓(遠企購物中心),2011/05/1起,11:00-22:00,飲品折價5元,自備飲料杯
,呷尚寶(興華店),南港區,,,02-27826937,121.605684,餐飲類,,25.056835,折價,早餐店,台北市南港區興華路115號,2011/09/01起,07:00-11:00,折價1元,自備飲料杯
,丹堤咖啡(民生二店),松山區,,,02-2764-3981,121.560632,餐飲類,,25.058822,折價,飲料店,台北市松山區民生東路5段119號2樓,2011/05/1起,11:00-22:00,飲品折價5元,自備飲料杯
,7-ELEVEN(台北市第六八0分公司),大同區,,,02-2550-4473,121.514995,餐飲類,,25.056876,折價,便利超商,台北市大同區民生西路214、216號,2011/05/1起,00:00-24:00,City caf / 思樂冰 650ml以上折價2元，以下折價1元,自備飲料杯
,西雅圖咖啡(榮星分公司),中山區,,,02-2504-6005,121.541131,餐飲類,,25.06257,折價,飲料店,台北市中山區民權東路3段3號,2011/05/1起,11:00-22:00,飲品折價5元,自備飲料杯
,休閒小站(東園店),萬華區,,,02-2332-3522,121.49555,餐飲類,,25.026999,折價,飲料店,台北市萬華區東園街28巷1號,2011/05/1起,11:00-22:00,650ml(含)以上折價2元，以下折價1元,自備飲料杯
,弘爺漢堡(新大直店),中山區,,,02-85092956,121.546639,餐飲類,,25.080577,折價,早餐店,台北市中山區大直街5號,2011/09/01起,07:00-11:00,折價1元,自備飲料杯
,星巴克(捷運門市),中正區,,,02-2396-7829,121.53036,餐飲類,,25.043602,折價,飲料店,台北市中正區八德路1段34號1樓(八德路與忠孝東路口),2011/05/1起,11:00-22:00,飲品折價10元,自備飲料杯
,聖德科斯天然有機門市(屏東中正門市),屏東市,,,08-734-1212,120.490412,餐飲類,,22.677483,折價,其他,屏東縣屏東市中正路161號,2012/08/01起,07:30~21:00,自備環保杯來店購買任一現打飲品或研磨現煮有機咖啡的折價2元,自備飲料杯
,呷尚寶(總店),中山區,,,02-25930185,121.528946,餐飲類,,25.063191,折價,早餐店,台北市中山區新生北路3段3巷39號,2011/09/01起,07:00-11:00,折價1元,自備飲料杯
,Roger caf (羅爵咖啡)(博愛店),中正區,,,02-2331-4843,121.510806,餐飲類,,25.037321,折價,飲料店,台北市中正區博愛路172號B1,2011/05/1起,11:00-22:00,飲品折價2元,自備飲料杯
,7-ELEVEN(台北市第一一六分公司),中正區,,,02-2312-2424,121.510506,餐飲類,,25.045116,折價,便利超商,台北市中正區延平南路47號,2011/05/1起,00:00-24:00,City caf / 思樂冰 650ml以上折價2元，以下折價1元,自備飲料杯
,O'life活力客健康茶飲(台北育達店),松山區,,,02-2570-1218,121.551653,餐飲類,,25.048069,折價,飲料店,台北市松山區八德路3段155巷28號之1(育達商職旁),2011/05/1起,11:00-22:00,650ml(含)以上折價2元，以下折價1元,自備飲料杯
,丹堤咖啡(和平信安店 ),大安區,,,02-8732-8087,121.554991,餐飲類,,25.022325,折價,飲料店,台北市大安區和平東路3段269號,2011/05/1起,11:00-22:00,飲品折價5元,自備飲料杯
,超秦(麥味登)(江南店),內湖區,,,02-26279682,121.578337,餐飲類,,25.07813,折價,早餐店,台北市內湖區江南街19號,2011/09/01起,07:00-11:00,折價1元,自備飲料杯
,7-ELEVEN(台北市第五九一分公司),北投區,,,02-2893-0420,121.504897,餐飲類,,25.135139,折價,便利超商,台北市北投區溫泉路70號,2011/05/1起,00:00-24:00,City caf / 思樂冰 650ml以上折價2元，以下折價1元,自備飲料杯
,清心福全(台北內湖康寧店),內湖區,,,02-8792-3883,121.591609,餐飲類,,25.080297,折價,飲料店,台北市內湖區康寧路1段34號,2011/05/1起,11:00-22:00,650ml(含)以上折價2元，以下折價1元,自備飲料杯
,全家便利商店(和豐分公司),士林區,,,02-2881-3084,121.519403,餐飲類,,25.082786,折價,便利超商,台北市士林區和豐街2號1樓,2011/05/1起,00:00-24:00,全家伯朗咖啡館 飲品折價3元,自備飲料杯
,清心福全(台北麟光分公司),大安區,,,02-2733-6155,121.553842,餐飲類,,25.030232,折價,飲料店,台北市大安區臨江街128號,2011/05/1起,11:00-22:00,650ml(含)以上折價2元，以下折價1元,自備飲料杯
,超秦(麥味登)(延平店),大同區,,,02-25533811,121.51157,餐飲類,,25.059336,折價,早餐店,台北市大同區延平北路2段197號,2011/09/01起,07:00-11:00,折價1元,自備飲料杯
,弘爺漢堡(新康樂店),內湖區,,,02-26319343,121.619228,餐飲類,,25.070832,折價,早餐店,台北市內湖區康樂街113號,2011/09/01起,07:00-11:00,折價1元,自備飲料杯
,7-ELEVEN(台北市第六九七分公司),文山區,,,02-8931-5646,121.53933,餐飲類,,25.001653,折價,便利超商,台北市文山區羅斯福路5段249號,2011/05/1起,00:00-24:00,City caf / 思樂冰 650ml以上折價2元，以下折價1元,自備飲料杯
,聖德科斯天然有機門市(萬大門市),萬華區,,,02-2332-1929,121.498732,餐飲類,,25.021331,折價,其他,臺北市萬華區萬大路427號,2012/08/01起,07:30~21:00,自備環保杯來店購買任一現打飲品或研磨現煮有機咖啡的折價2元,自備飲料杯
,摩斯漢堡(敦北分公司),松山區,,,02-2514-9424,121.549711,餐飲類,,25.054201,集點,速食店,台北市松山區敦化北路155巷1號,2011/05/1起,11:00-22:00,每杯1點，集5點可兌換30元商品，集10點可兌換60元商品(前述不含罐裝、瓶裝非現場填裝)飲料,自備飲料杯
,全家便利商店(孔廟店),大同區,,,02-2550-0930,121.515168,餐飲類,,25.055842,折價,便利超商,台北市大同區寧夏路28、30號,2011/05/1起,00:00-24:00,全家伯朗咖啡館 飲品折價3元,自備飲料杯
,都可COCO(天母德行),士林區,,,02-2833-3959 ,121.52824,餐飲類,,25.107766,折價,飲料店,台北市士林區德行東路107號,2011/05/1起,11:00-22:00,飲品折價2元,自備飲料杯
,一手私藏世界紅茶(台北八德店),松山區,,,02-2570-0689,121.555229,餐飲類,,25.048199,折價,飲料店,台北市松山區八德路3段159號,2011/05/1起,11:00-22:00,飲品折價2元,自備飲料杯
,7-ELEVEN(台北市第六七四分公司),內湖區,,,02-2634-7648,121.608259,餐飲類,,25.072353,折價,便利超商,台北市內湖區康寧路3段63、65、67號,2011/05/1起,00:00-24:00,City caf / 思樂冰 650ml以上折價2元，以下折價1元,自備飲料杯
,聖德科斯天然有機門市(師大門市),大安區,,,02-2364-2293,121.529915,餐飲類,,25.026271,折價,其他,臺北市大安區和平東路一段182-2號,2012/08/01起,07:30~21:00,自備環保杯來店購買任一現打飲品或研磨現煮有機咖啡的折價2元,自備飲料杯
,7-ELEVEN(台北市第三五七分公司),內湖區,,,02-2794-3371,121.591748,餐飲類,,25.082275,折價,便利超商,台北市內湖區成功路4段30巷27、29、31號,2011/05/1起,00:00-24:00,City caf / 思樂冰 650ml以上折價2元，以下折價1元,自備飲料杯
,瑞麟美而美(金湖店),內湖區,,,02-27961182,121.596741,餐飲類,,25.082547,折價,早餐店,台北市內湖區金湖路44號,2011/09/01起,07:00-11:00,折價1元,自備飲料杯
,瑞麟美而美(內湖王太太店),內湖區,,,02-27943024,121.597615,餐飲類,,25.06226,折價,早餐店,台北市內湖區安康路70號,2011/09/01起,07:00-11:00,折價1元,自備飲料杯
,麥當勞(高島屋中心),士林區,,,"02-2831-5961
02-2831-6935",121.531342,餐飲類,,25.111735,集點,速食店,台北市士林區忠誠路2段55號,2011/05/1起,11:00-22:00,每杯1點，集5點可兌換30元飲料1杯(奶昔、漂浮飲品及免費飲料不在集點範圍內),自備飲料杯
,呷尚寶(撫遠店),松山區,,,02-27466600,121.566869,餐飲類,,25.061443,折價,早餐店,台北市松山區撫遠街379巷1號,2011/09/01起,07:00-11:00,折價1元,自備飲料杯
,7-ELEVEN(台北市一一八分公司),內湖區,,,02-2790-5126,121.592769,餐飲類,,25.084884,折價,便利超商,台北市內湖區金龍路64、66號,2011/05/1起,00:00-24:00,City caf / 思樂冰 650ml以上折價2元，以下折價1元,自備飲料杯
,瑞麟美而美(康定店),萬華區,,,02-23087019,121.501399,餐飲類,,25.035378,折價,早餐店,台北市萬華區康定路231號,2011/09/01起,07:00-11:00,折價1元,自備飲料杯
,義美咖博館(天母門市部),士林區,,,02-2871-2612,121.525713,餐飲類,,25.118352,折價,便利超商,台北市士林區天母西路42號,2011/05/1起,11:00-22:00,飲品享9折,自備飲料杯
,茶(台北大安和平東店),大安區,,,02-2368-8759,121.529079,餐飲類,,25.02436,折價,飲料店,台北市大安區師大路49巷7號,2011/05/1起,11:00-22:00,650ml(含)以上折價2元，以下折價1元,自備飲料杯
,頂呱呱(漢中分公司),萬華區,,,02-2361-2921,121.50748,餐飲類,,25.04319,集點,速食店,台北市萬華區漢中街109-2號1樓,2011/05/1起,11:00-22:00,每杯1點，集5點可兌換32元飲料1杯,自備飲料杯
,Golden咖啡茶飲(延吉總店),大安區,,,02-8772-2005,121.554338,餐飲類,,25.042485,折價,飲料店,台北市大安區延吉街133、135號,2011/05/1起,11:00-22:00,650ml(含)以上折價3元，以下折價2元,自備飲料杯
,拉亞漢堡(南港玉成店),南港區,,,02-27862705,121.592887,餐飲類,,25.054494,折價,早餐店,台北市南港區南港路3段8號,2011/09/01起,07:00-11:00,折價1元,自備飲料杯
,OK超商(第603分公司),文山區,,,02-8661-5351,121.573793,餐飲類,,24.990907,折價,便利超商,台北市文山區新光路1段97號,2011/05/1起,00:00-24:00,OK Caf 飲品折價3元,自備飲料杯
,都可COCO(美崙),士林區,,,02-2833-8406 ,121.523683,餐飲類,,25.097169,折價,飲料店,台北市士林區美崙街5號,2011/05/1起,11:00-22:00,飲品折價2元,自備飲料杯
,OK超商(第162分公司),文山區,,,02-2239-2449,121.557549,餐飲類,,24.999137,折價,便利超商,台北市文山區興隆路3段118號,2011/05/1起,00:00-24:00,OK Caf 飲品折價3元,自備飲料杯
,壹咖啡(台北汀州),中正區,,,02-23682212,121.530502,餐飲類,,25.016416,折價,飲料店,台北市中正區汀洲路3段125號,2011/05/1起,11:00-22:00,飲品折價2元，可與其他優惠並行但不折抵現金,自備飲料杯
,橘子工坊(重慶店),大同區,,,02-2553-0088,121.513416,餐飲類,,25.06231,集點,飲料店,台北市大同區重慶北路2段188號,2011/05/1起,11:00-22:00,每杯1點，集10點可兌換30元飲品，或補差額換購30元以上飲料,自備飲料杯
,橘子工坊(民生店),松山區,,,02-2746-7979,121.563311,餐飲類,,25.061343,集點,飲料店,台北市松山區三民路156號(近家樂福),2011/05/1起,11:00-22:00,每杯1點，集10點可兌換30元飲品，或補差額換購30元以上飲料,自備飲料杯
,萊爾富(民權第二分公司),松山區,,,02-2760-9238,121.564403,餐飲類,,25.062818,折價,便利超商,台北市松山區民權東路5段32號1樓,2011/05/1起,00:00-24:00,Hi Caf 飲品折價3元,自備飲料杯
,IS COFFEE(南京本店分公司),中山區,,,02-8773-5345,121.543288,餐飲類,,25.051716,折價,飲料店,台北市中山區南京東路3段210號(近復興北路口及兄弟飯店),2011/05/1起,11:00-22:00,飲品折價5元,自備飲料杯
,cama現烘咖啡專賣店(愛國店),中正區,,,02-2395-2230,121.526299,餐飲類,,25.032281,折價,飲料店,台北市中正區愛國東路35-1號,2011/05/1起,11:00-22:00,飲品折價1元,自備飲料杯
,青春之泉小吃店,大安區,,,02-23584210,121.53061,餐飲類,,25.02718,贈品,素食,臺北市大安區青田街12巷23號,2012/08/01-2013/02/29,11:00~21:00,贈養生茶包一單胞,使用本店提供之餐具
,星巴克(台北市第五十八分公司),內湖區,,,02-8798-3266,121.569454,餐飲類,,25.078852,折價,飲料店,台北市內湖區瑞光路476號,2011/05/1起,11:00-22:00,飲品折價10元,自備飲料杯
,茶樂町(台北大安光復南店),大安區,,,02-2731-3913,121.555138,餐飲類,,25.038507,集點,飲料店,台北市大安區延吉街186號,2011/05/1起,11:00-22:00,每杯1點，集10點可兌換或折抵40元之店內飲品,自備飲料杯
,漢堡王(大湖分公司),內湖區,,,02-2792-9398,121.600555,餐飲類,,25.084811,集點,速食店,台北市內湖區成功路4段372號,2011/05/1起,11:00-22:00,每杯1點，集10點可兌換30元飲料1杯,自備飲料杯
,壹咖啡(台北西華),松山區,,,02-2713-9183,121.546824,餐飲類,,25.059653,折價,飲料店,台北市松山區民生東路3段113巷25弄23號,2011/05/1起,11:00-22:00,飲品折價2元，可與其他優惠並行但不折抵現金,自備飲料杯
,喫茶趣(新光信義A8館),信義區,,,02-8789-8209,121.566663,餐飲類,,25.038882,折價,飲料店,台北市信義區松高路12號B2,2011/05/1起,11:00-22:00,500ml折價2元,自備飲料杯
,呷尚寶(士商店),士林區,,,02-28813538,121.518732,餐飲類,,25.092193,折價,早餐店,台北市士林區士商路116號,2011/09/01起,07:00-11:00,折價1元,自備飲料杯
,大苑子(台北莊敬店),信義區,,,02-2345-1155,121.564321,餐飲類,,25.027913,折價,飲料店,台北市信義區莊敬路343號,2011/05/1起,11:00-22:00,飲品折價2元,自備飲料杯
,瑞麟美而美(民承店),大同區,,,02-25520460,121.518384,餐飲類,,25.057813,折價,早餐店,台北市大同區承德路2段141號,2011/09/01起,07:00-11:00,折價1元,自備飲料杯
,7-ELEVEN(台北市第一0一分公司),中山區,,,02-2581-5356,121.531595,餐飲類,,25.05304,折價,便利超商,台北市中山區一江街23號,2011/05/1起,00:00-24:00,City caf / 思樂冰 650ml以上折價2元，以下折價1元,自備飲料杯
,星巴克(台北市第三十分公司),中山區,,,02-2564-2790,121.532821,餐飲類,,25.057683,折價,飲料店,台北市中山區松江路206號1樓,2011/05/1起,11:00-22:00,飲品折價10元,自備飲料杯
,7-ELEVEN(台北市第二六二分公司),中山區,,,02-2532-1290,121.548932,餐飲類,,25.081976,折價,便利超商,台北市中山區北安路606、608號,2011/05/1起,00:00-24:00,City caf / 思樂冰 650ml以上折價2元，以下折價1元,自備飲料杯
,瑞麟美而美(台北永吉店),信義區,,,02-27686312,121.568928,餐飲類,,25.045416,折價,早餐店,台北市信義區永吉路30巷1號,2011/09/01起,07:00-11:00,折價1元,自備飲料杯
,7-ELEVEN(台北市第一八七分公司),中正區,,,,121.534345,餐飲類,,25.013669,折價,便利超商,台北市中正區汀洲路3段249號,2011/05/1起,00:00-24:00,City caf / 思樂冰 650ml以上折價2元，以下折價1元,自備飲料杯
,85度C(北投中和店),北投區,,,02-2897-8385 ,121.499607,餐飲類,,25.141014,折價,飲料店,台北市北投區中和街335號,2011/05/1起,11:00-22:00,飲品折價3元,自備飲料杯
,台北牛乳大王(市政府店),信義區,,,02-2768-9826,121.567656,餐飲類,,25.041335,集點,飲料店,台北市信義區忠孝東路5段133號(市府站4號出口),2011/05/1起,11:00-22:00,每杯1點，集10點可兌換50元飲料1杯，或補差額兌換其它飲料1杯,自備飲料杯
,7-ELEVEN(萬長門市),萬華區,,,02-2337-7511,121.498007,餐飲類,,25.022413,折價,便利超商,台北市萬華區東園街172、174號,2011/05/1起,00:00-24:00,City caf / 思樂冰 650ml以上折價2元，以下折價1元,自備飲料杯
,頂呱呱(西門分公司),萬華區,,,02-2381-2037,121.505285,餐飲類,,25.044922,集點,速食店,台北市萬華區昆明街92-2號,2011/05/1起,11:00-22:00,每杯1點，集5點可兌換32元飲料1杯,自備飲料杯
,7-ELEVEN(台北市第二七四分公司),大安區,,,,121.534331,餐飲類,,25.038516,折價,便利超商,台北市大安區仁愛路3段25-1.27號,2011/05/1起,00:00-24:00,City caf / 思樂冰 650ml以上折價2元，以下折價1元,自備飲料杯
,全家便利商店(富陽分公司),中正區,,,02-2364-8818,121.517401,餐飲類,,25.025312,折價,便利超商,台北市中正區廈門街52號1樓,2011/05/1起,00:00-24:00,全家伯朗咖啡館 飲品折價3元,自備飲料杯
,聖德科斯天然有機門市(民生門市),松山區,,,02-2747-2750,121.559863,餐飲類,,25.05884,折價,其他,臺北市松山區民生東路五段99號,2012/08/01起,07:30~21:00,自備環保杯來店購買任一現打飲品或研磨現煮有機咖啡的折價2元,自備飲料杯
,全家便利商店(長春分公司),中山區,,,02-2581-7796,121.525776,餐飲類,,25.054817,折價,便利超商,台北市中山區長春路48號,2011/05/1起,00:00-24:00,全家伯朗咖啡館 飲品折價3元,自備飲料杯
,Dunkin'  Donuts(國光門市部),中正區,,,02-2383-1058,121.514304,餐飲類,,25.047228,折價,飲料店,台北市中正區忠孝西路1段173號(國光客運東站),2011/05/1起,11:00-22:00,飲品折價3元,自備飲料杯
,全家便利商店(莊敬分公司),信義區,,,02-2720-1156,121.564888,餐飲類,,25.027598,折價,便利超商,台北市信義區莊敬路374號1樓,2011/05/1起,00:00-24:00,全家伯朗咖啡館 飲品折價3元,自備飲料杯
,麥當勞(重北一),士林區,,,"02-2816-2230
02-2816-3020",121.512179,餐飲類,,25.082593,集點,速食店,台北市士林區重慶北路4段123號,2011/05/1起,11:00-22:00,每杯1點，集5點可兌換30元飲料1杯(奶昔、漂浮飲品及免費飲料不在集點範圍內),自備飲料杯
,7-ELEVEN(台北市第三00分公司),內湖區,,,02-2632-8942,121.607934,餐飲類,,25.072185,折價,便利超商,台北市內湖區康寧路3段26巷1號,2011/05/1起,00:00-24:00,City caf / 思樂冰 650ml以上折價2元，以下折價1元,自備飲料杯
,COME  BUY(安居),大安區,,,02-2737-2557,121.554543,餐飲類,,25.020819,集點,飲料店,台北市大安區安居街30號,2011/05/1起,11:00-22:00,每杯1點，集10點可兌換30元飲品1杯,自備飲料杯
,7-ELEVEN(台北市第五十五分公司),大安區,,,02-2735-5357,121.557524,餐飲類,,25.018433,折價,便利超商,台北市大安區臥龍街275號,2011/05/1起,00:00-24:00,City caf / 思樂冰 650ml以上折價2元，以下折價1元,自備飲料杯
,7-ELEVEN(台北市第三八六分公司),大同區,,,02-2557-0749,121.519235,餐飲類,,25.05759,折價,便利超商,台北市大同區民生西路95、97號,2011/05/1起,00:00-24:00,City caf / 思樂冰 650ml以上折價2元，以下折價1元,自備飲料杯
,一手私藏世界紅茶(士林夜市店),士林區,,,02-2883-3355,121.525649,餐飲類,,25.08793,折價,飲料店,台北市士林區文林路101巷20號,2011/05/1起,11:00-22:00,飲品折價2元,自備飲料杯
,星巴克(台北市第七十六分公司),大安區,,,02-8771-9692,121.556936,餐飲類,,25.042527,折價,飲料店,台北市大安區光復南路180巷14號(華視停車場旁),2011/05/1起,11:00-22:00,飲品折價10元,自備飲料杯
,7-ELEVEN(捷欣門市),中正區,,,02-2381-5124,121.517448,餐飲類,,25.046459,折價,便利超商,台北市中正區忠孝西路1段47號B1,2011/05/1起,00:00-24:00,City caf / 思樂冰 650ml以上折價2元，以下折價1元,自備飲料杯
,超秦(麥味登)(工農店),信義區,,,02-27587795,121.571748,餐飲類,,25.03997,折價,早餐店,台北市信義區忠孝東路5段236巷12號,2011/09/01起,07:00-11:00,折價1元,自備飲料杯
,50嵐(政大店),文山區,,,02-8661-7571,121.574739,餐飲類,,24.987931,折價,飲料店,台北市文山區指南路2段63號,2011/05/1起,11:00-22:00,大杯折價2元，中杯折價1元,自備飲料杯
,7-ELEVEN(台北市第二十六分公司),松山區,,,02-2772-9274,121.546946,餐飲類,,25.048327,折價,便利超商,台北市松山區八德路2段439號,2011/05/1起,00:00-24:00,City caf / 思樂冰 650ml以上折價2元，以下折價1元,自備飲料杯
,7-ELEVEN(台北市第四七八分公司),文山區,,,02-8661-6462,121.574052,餐飲類,,24.99159,折價,便利超商,台北市文山區秀明路2段6號1樓,2011/05/1起,00:00-24:00,City caf / 思樂冰 650ml以上折價2元，以下折價1元,自備飲料杯
,好了啦(台北民權),內湖區,,,0927-058-181,121.586091,餐飲類,,25.068601,折價,飲料店,台北市內湖區民權東路6段90巷3號1樓,2011/05/1起,11:00-22:00,650ml(含)以上折價2元，以下折價1元,自備飲料杯
,超秦(麥味登)(晨芳店),中正區,,,02-23027759,121.504876,餐飲類,,25.032366,折價,早餐店,台北市中正區中華路2段117號,2011/09/01起,07:00-11:00,折價1元,自備飲料杯
,仙Q甜品專賣店(City caf / 思樂冰),大安區,,,02-2771-3226,121.554446,餐飲類,,25.042103,折價,飲料店,台北市大安區延吉街131巷2弄11號,2011/05/1起,11:00-22:00,650ml(含)以上折價2元，以下折價1元,自備飲料杯
,摩斯漢堡(新光南西二店),中山區,,,02-2564-1111,121.520765,餐飲類,,25.052365,集點,速食店,台北市中山區南京西路14號B1,2011/05/1起,11:00-22:00,每杯1點，集5點可兌換30元商品，集10點可兌換60元商品(前述不含罐裝、瓶裝非現場填裝)飲料,自備飲料杯
,喫茶趣(民生東路分公司),中山區,,,02-2511-2213,121.523916,餐飲類,,25.05792,折價,飲料店,台北市中山區民生東路1段26-2號(近中山北路),2011/05/1起,11:00-22:00,500ml折價2元,自備飲料杯
,肯德基(台北中山1分公司),中山區,,,02-2771-5135,121.543758,餐飲類,,25.051704,集點,速食店,台北市中山區南京東路3段222號1~4樓,2011/05/1起,11:00-22:00,每杯1點，集5點可兌換32元以內杯裝飲料(不含湯品、100%柳橙汁、瓶裝、罐裝等飲料或包裝水),自備飲料杯
,橘子(遼寧店),中山區,,,02-8772-3839,121.542108,餐飲類,,25.048317,集點,飲料店,台北市中山區遼寧街38號,2011/05/1起,11:00-22:00,每杯1點，集5點可兌換15元飲品，或加價換購其他飲品(果汁除外),自備飲料杯
,7-ELEVEN(台北市第五四七分公司),文山區,,,02-2935-0416,121.551393,餐飲類,,25.002821,折價,便利超商,台北市文山區福興路20號,2011/05/1起,00:00-24:00,City caf / 思樂冰 650ml以上折價2元，以下折價1元,自備飲料杯
,7-ELEVEN(台北市第六四0分公司),中山區,,,02-2517-6282,121.543584,餐飲類,,25.056144,折價,便利超商,台北市中山區興安街99號,2011/05/1起,00:00-24:00,City caf / 思樂冰 650ml以上折價2元，以下折價1元,自備飲料杯
,百寶興業有限公司,板橋區,,,02-26823219,121.433102,餐飲類,,24.994705,贈品,素食店,新北市板橋區大觀路三段89號,101/07/31-102/02/01,11:00-21:00,自備筷子或湯匙，贈送小甜點,自備筷子或湯匙
,7-ELEVEN(台北市第二三四分公司),大安區,,,02-2781-1473,121.541391,餐飲類,,25.041067,折價,便利超商,台北市大安區忠孝東路3段248巷9號,2011/05/1起,00:00-24:00,City caf / 思樂冰 650ml以上折價2元，以下折價1元,自備飲料杯
,瑞麟美而美(社子國小店),士林區,,,02-28111523,121.504104,餐飲類,,25.089066,折價,早餐店,台北市士林區延平北路6段249號,2011/09/01起,07:00-11:00,折價1元,自備飲料杯
,85度C(天母德行店),士林區,,,02-2834-7722,121.534012,餐飲類,,25.109788,折價,飲料店,台北市士林區德行東路241號,2011/05/1起,11:00-22:00,飲品折價3元,自備飲料杯
,50嵐(木新店),文山區,,,02-2937-7040,121.561166,餐飲類,,24.981967,折價,飲料店,台北市文山區木新路3段158號,2011/05/1起,11:00-22:00,大杯折價2元，中杯折價1元,自備飲料杯
,KOHIKAN珈琲館(台北逸仙店),信義區,,,02-2758-3805,121.56175,餐飲類,,25.040132,折價,飲料店,台北市信義區逸仙路38號,2011/05/1起,11:00-22:00,飲品折價1元,自備飲料杯
,摩斯漢堡(康華分公司),中山區,,,02-2531-0561,121.533033,餐飲類,,25.059724,集點,速食店,台北市中山區松江路274號1樓,2011/05/1起,11:00-22:00,每杯1點，集5點可兌換30元商品，集10點可兌換60元商品(前述不含罐裝、瓶裝非現場填裝)飲料,自備飲料杯
,早安美芝城(北市中山北路分店),中山區,,,02-25237496,121.520718,餐飲類,,25.054619,折價,早餐店,台北市中山區中山北路2段42巷42號,2011/09/01起,07:00-11:00,折價1元,自備飲料杯
,全家便利商店(萬年分公司),萬華區,,,02-2388-3343,121.506269,餐飲類,,25.043557,折價,便利超商,台北市萬華區西寧南路155號,2011/05/1起,00:00-24:00,全家伯朗咖啡館 飲品折價3元,自備飲料杯
,丹堤咖啡(捷運市府分公司),信義區,,,02-8787-3773,121.56857,餐飲類,,25.041282,折價,飲料店,台北市信義區忠孝東路5段137號,2011/05/1起,11:00-22:00,飲品折價5元,自備飲料杯
,鮮芋仙(士林中正店),士林區,,,02-2832-3006,121.526388,餐飲類,,25.095605,折價,飲料店,台北市士林區中正路210-3號(阿瘦皮鞋隔壁),2011/05/1起,11:00-22:00,650ml(含)以上折價2元，以下折價1元,自備飲料杯
,聖德科斯天然有機門市(林口長庚門市),龜山鄉,,,03-397-9889,121.365125,餐飲類,,25.057089,折價,其他,桃園縣龜山鄉文興路130號,2012/08/01起,07:30~21:00,自備環保杯來店購買任一現打飲品或研磨現煮有機咖啡的折價2元,自備飲料杯
,麥當勞(台北承德II分公司),北投區,,,02-2821-053302-2821-0644,121.505788,餐飲類,,25.116128,集點,速食店,台北市北投區承德路7段262號,2011/05/1起,11:00-22:00,每杯1點，集5點可兌換30元飲料1杯(奶昔、漂浮飲品及免費飲料不在集點範圍內),自備飲料杯
,聖德科斯天然有機門市(復興錦州門市),松山區,,,02-2502-8083,121.543963,餐飲類,,25.06053,折價,其他,臺北市松山區復興北路364號,2012/08/01起,07:30~21:00,自備環保杯來店購買任一現打飲品或研磨現煮有機咖啡的折價2元,自備飲料杯
,麥當勞(台北通化店),大安區,,,02-2772-085502-2772-0695,121.553726,餐飲類,,25.041142,集點,速食店,台北市大安區忠孝東路4段226號1、2樓,2011/05/1起,11:00-22:00,每杯1點，集5點可兌換30元飲料1杯(奶昔、漂浮飲品及免費飲料不在集點範圍內),自備飲料杯
,ㄚ好嬸古早味紅茶冰(松山撫遠店),松山區,,,0980-555-795,121.568386,餐飲類,,25.05977,折價,飲料店,台北市松山區撫遠街193號,2011/05/1起,11:00-22:00,650ml(含)以上折價2元，以下折價1元,自備飲料杯
,好了啦(北投尊賢),北投區,,,02-2822-2294,121.506978,餐飲類,,25.117287,折價,飲料店,台北市北投區尊賢街245巷1號,2011/05/1起,11:00-22:00,650ml(含)以上折價2元，以下折價1元,自備飲料杯
,伯朗咖啡(延平店),中正區,,,02-2389-1533,121.508668,餐飲類,,25.038416,折價,飲料店,台北市中正區延平南路127號1樓(文化大學大新館),2011/05/1起,11:00-22:00,飲品折價3元,自備飲料杯
,超秦(麥味登)(國王店),中山區,,,0989-989749,121.523487,餐飲類,,25.058147,折價,早餐店,台北市中山區民生東路1段3號,2011/09/01起,07:00-11:00,折價1元,自備飲料杯
,都可COCO(遼寧),中山區,,,02-2502-0755 ,121.542035,餐飲類,,25.056429,折價,飲料店,台北市中山區遼寧街224號,2011/05/1起,11:00-22:00,飲品折價2元,自備飲料杯
,全家便利商店(景文店),文山區,,,02-29303305,121.54139,餐飲類,,24.991132,折價,便利超商,台北市文山區景文街83號,2011/05/1起,00:00-24:00,全家伯朗咖啡館 飲品折價3元,自備飲料杯
,7-ELEVEN(台北市第四三四分公司),文山區,,,02-8661-7034,121.577273,餐飲類,,24.987419,折價,便利超商,台北市文山區指南路2段149號,2011/05/1起,00:00-24:00,City caf / 思樂冰 650ml以上折價2元，以下折價1元,自備飲料杯
,百味草壽伯青草茶(遠企門市),大安區,,,02-2754-6243,121.539353,餐飲類,,25.026454,折價,飲料店,台北市大安區瑞安街260-1號,2011/05/1起,11:00-22:00,650ml以上折價2元，以下折價1元,自備飲料杯
,聖德科斯天然有機門市(高雄中正門市),新興區,,,07-271-1126,120.307649,餐飲類,,22.630791,折價,其他,高雄市新興區中正三路69號,2012/08/01起,07:30~21:00,自備環保杯來店購買任一現打飲品或研磨現煮有機咖啡的折價2元,自備飲料杯
,瑞麟美而美(昆明店),萬華區,,,02-23887881,121.504801,餐飲類,,25.042241,折價,早餐店,台北市萬華區昆明街105號,2011/09/01起,07:00-11:00,折價1元,自備飲料杯
,7-ELEVEN(台北市第七十六分公司),中山區,,,02-2523-6761,121.527716,餐飲類,,25.048479,折價,便利超商,台北市中山區長安東路1段73號,2011/05/1起,00:00-24:00,City caf / 思樂冰 650ml以上折價2元，以下折價1元,自備飲料杯
,7-ELEVEN(台北市第六八三分公司),士林區,,,02-2872-4419,121.53266,餐飲類,,25.123967,折價,便利超商,台北市士林區中山北路7段156號,2011/05/1起,00:00-24:00,City caf / 思樂冰 650ml以上折價2元，以下折價1元,自備飲料杯
,都可COCO(龍江2),中山區,,,02-2501-8189 ,121.540842,餐飲類,,25.065795,折價,飲料店,台北市中山區龍江路350號,2011/05/1起,11:00-22:00,飲品折價2元,自備飲料杯
,7-ELEVEN(台北市地一七九分公司),大安區,,,02-2721-8292,121.54454,餐飲類,,25.042696,折價,便利超商,台北市大安區復興南路1段135巷5號,2011/05/1起,00:00-24:00,City caf / 思樂冰 650ml以上折價2元，以下折價1元,自備飲料杯
,7-ELEVEN(台北市第五五二分公司),內湖區,,,02-2658-7055,121.579009,餐飲類,,25.076249,折價,便利超商,台北市內湖區江南街71巷16弄76號,2011/05/1起,00:00-24:00,City caf / 思樂冰 650ml以上折價2元，以下折價1元,自備飲料杯
,Subway(台大店),大安區,,,02-3365-2629,121.536529,餐飲類,,25.012848,折價,速食店,台北市大安區羅斯福路4段85號1樓,2011/05/1起,11:00-22:00,651ml(含)以上折價3元，501至650ml折價2元，500ml(含)以下折1元,自備飲料杯
,巧沛國際(萬華店),萬華區,,,02-23026428,121.500423,餐飲類,,25.032643,折價,早餐店,台北市萬華區萬大路2號,2011/09/01起,07:00-11:00,折價1元,自備飲料杯
,7-ELEVEN(台北市第六八七分公司),信義區,,,02-8780-4531,121.568655,餐飲類,,25.036845,折價,便利超商,台北市信義區松仁路91-1號1樓,2011/05/1起,00:00-24:00,City caf / 思樂冰 650ml以上折價2元，以下折價1元,自備飲料杯
,7-ELEVEN(台北市第五二四分公司),大安區,,,02-2784-4961,121.552601,餐飲類,,25.030488,折價,便利超商,台北市大安區安和路2段67號,2011/05/1起,00:00-24:00,City caf / 思樂冰 650ml以上折價2元，以下折價1元,自備飲料杯
,7-ELEVEN(台北市第五十一分公司),文山區,,,02-2937-1171,121.559113,餐飲類,,24.984161,折價,便利超商,台北市文山區忠順街1段101號,2011/05/1起,00:00-24:00,City caf / 思樂冰 650ml以上折價2元，以下折價1元,自備飲料杯
,法華企業有限公司(法華園),內湖區,,,02-87519068,121.570455,餐飲類,,25.082191,折價,素食,臺北市內湖區內湖路一段387巷3弄6號,2012/07/17-2013/12/31,"11:00~14:00
17:00~20:30",小吃、便當打9折,自備餐具
,7-ELEVEN(台北市第四一四分公司),大安區,,,02-8771-0411,121.552885,餐飲類,,25.038084,折價,便利超商,台北市大安區忠孝東路4段216巷68號,2011/05/1起,00:00-24:00,City caf / 思樂冰 650ml以上折價2元，以下折價1元,自備飲料杯
,紅景天漢方御品(士林中正分公司),士林區,,,02-2883-9243,121.52115,餐飲類,,25.093905,折價,飲料店,台北市士林區中正路401號,2011/05/1起,11:00-22:00,650ml(含)以上折價3元，以下折價2元,自備飲料杯
,7-ELEVEN(台北市第四九二分公司),大同區,,,02-2555-1759,121.518008,餐飲類,,25.050756,折價,便利超商,台北市大同區長安西路45-1號,2011/05/1起,00:00-24:00,City caf / 思樂冰 650ml以上折價2元，以下折價1元,自備飲料杯
,好凍吸(台北永吉),信義區,,,0980-567-123,121.568868,餐飲類,,25.042906,折價,飲料店,台北市信義區永吉路30巷123號,2011/05/1起,11:00-22:00,650ml(含)以上折價2元，以下折價1元,自備飲料杯
,丹堤咖啡(松江店),中山區,,,02-2521-4480,121.532861,餐飲類,,25.058339,折價,飲料店,台北市中山區松江路222號,2011/05/1起,11:00-22:00,飲品折價5元,自備飲料杯
,早安美芝城(文山店),文山區,,,02-29392303,121.560227,餐飲類,,24.988942,折價,早餐店,台北市文山區興隆路4段87號,2011/09/01起,07:00-11:00,折價1元,自備飲料杯
,超秦(麥味登)(桃源店),北投區,,,02-28964562,121.484562,餐飲類,,25.13804,折價,早餐店,台北市北投區中央北路3段82號,2011/09/01起,07:00-11:00,折價1元,自備飲料杯
,丹堤咖啡(民生分公司),松山區,,,02-2546-6286,121.550965,餐飲類,,25.058041,折價,飲料店,台北市松山區民生東路4段65號,2011/05/1起,11:00-22:00,飲品折價5元,自備飲料杯
,麥當勞(台北北安分公司),中山區,,,02-2533-6263,121.549186,餐飲類,,25.082768,集點,速食店,台北市中山區北安路626、628號1樓,2011/05/1起,11:00-22:00,每杯1點，集5點可兌換30元飲料1杯(奶昔、漂浮飲品及免費飲料不在集點範圍內),自備飲料杯
,壹咖啡(台北八德),大安區,,,02-2578-9165,121.55748,餐飲類,,25.047701,折價,飲料店,台北市大安區光復南路6巷5號1樓,2011/05/1起,11:00-22:00,飲品折價2元，可與其他優惠並行但不折抵現金,自備飲料杯
,全家便利商店(永興分公司),北投區,,,02-2894-7414,121.499384,餐飲類,,25.138819,折價,便利超商,台北市北投區永興路1段1、3號1樓,2011/05/1起,00:00-24:00,全家伯朗咖啡館 飲品折價3元,自備飲料杯
,50嵐(延平北店),士林區,,,02-2812-1150,121.510058,餐飲類,,25.084234,折價,飲料店,台北市士林區延平北路5段230號,2011/05/1起,11:00-22:00,大杯折價2元，中杯折價1元,自備飲料杯
,全家便利商店(師大分公司),大安區,,,02-8771-6553,121.554915,餐飲類,,25.039458,折價,便利超商,台北市大安區延吉街158號,2011/05/1起,00:00-24:00,全家伯朗咖啡館 飲品折價3元,自備飲料杯
,7-ELEVEN(台北市第三五一分公司),北投區,,,02-2826-2195,121.519411,餐飲類,,25.10946,折價,便利超商,台北市北投區明德路99號,2011/05/1起,00:00-24:00,City caf / 思樂冰 650ml以上折價2元，以下折價1元,自備飲料杯
,聖德科斯天然有機門市(佳里延平門市),佳里區,,,06-723-3373,120.178909,餐飲類,,23.155752,折價,其他,台南市佳里區延平路91號1樓,2012/08/01起,07:30~21:00,自備環保杯來店購買任一現打飲品或研磨現煮有機咖啡的折價2元,自備飲料杯
,萊爾富(北市信東分公司),信義區,,,02-2749-1906,121.566567,餐飲類,,25.041476,折價,便利超商,台北市信義區忠孝東路5段63號1樓,2011/05/1起,00:00-24:00,Hi Caf 飲品折價3元,自備飲料杯
,星巴克(天母崇光門市),士林區,,,02-2834-9068,121.524523,餐飲類,,25.104687,折價,飲料店,台北市士林區中山北路6段77號B1(天母Sogo百貨),2011/05/1起,11:00-22:00,飲品折價10元,自備飲料杯
,瑞麟美而美(建國店),中山區,,,02-25090380,121.537413,餐飲類,,25.056076,折價,早餐店,台北市中山區興安街2-1號,2011/09/01起,07:00-11:00,折價1元,自備飲料杯
,7-ELEVEN(台北市第一分公司),士林區,,,02-2835-6410,121.525117,餐飲類,,25.106489,折價,便利超商,台北市士林區中山北路6段150號,2011/05/1起,00:00-24:00,City caf / 思樂冰 650ml以上折價2元，以下折價1元,自備飲料杯
,萊爾富(第三五七一分公司),松山區,,,02-2767-9685,121.567327,餐飲類,,25.05727,折價,便利超商,台北市松山區延壽街81號1樓,2011/05/1起,00:00-24:00,Hi Caf 飲品折價3元,自備飲料杯
,85度C(台北同德店),南港區,,,02-2785-3000 ,121.584002,餐飲類,,25.045065,折價,飲料店,台北市南港區同德路26號,2011/05/1起,11:00-22:00,飲品折價3元,自備飲料杯
,壹咖啡(士林芝山),士林區,,,02-2837-8176,121.522952,餐飲類,,25.102583,折價,飲料店,台北市士林區福華路122號,2011/05/1起,11:00-22:00,飲品折價2元，可與其他優惠並行但不折抵現金,自備飲料杯
,好了啦(臺北民權二店),中山區,,,0915-770-978,121.531674,餐飲類,,25.063187,折價,飲料店,台北市中山區民權東路2段71巷2號,2011/05/1起,11:00-22:00,650ml(含)以上折價2元，以下折價1元,自備飲料杯
,台北牛乳大王(忠愛分公司),大安區,,,02-2771-2886,121.542709,餐飲類,,25.026158,集點,飲料店,台北市大安區忠孝東路4段49巷4弄10號(忠孝復興站4號),2011/05/1起,11:00-22:00,每杯1點，集10點可兌換50元飲料1杯，或補差額兌換其它飲料1杯,自備飲料杯
,萊爾富(北市興湖分公司),內湖區,,,02-2630-6246,121.616464,餐飲類,,25.068284,折價,便利超商,台北市內湖區東湖路121號,2011/05/1起,00:00-24:00,Hi Caf 飲品折價3元,自備飲料杯
,7-ELEVEN(台北市第六四九分公司),士林區,,,02-2872-1974,121.536863,餐飲類,,25.118323,折價,便利超商,台北市士林區天母東路109號,2011/05/1起,00:00-24:00,City caf / 思樂冰 650ml以上折價2元，以下折價1元,自備飲料杯
,拉亞漢堡(台北錦州店),中山區,,,02-25151619,121.539508,餐飲類,,25.060155,折價,早餐店,台北市中山區錦州街352號,2011/09/01起,07:00-11:00,折價1元,自備飲料杯
,7-ELEVEN(台北市第五十九分公司),大同區,,,02-2595-9849,121.51358,餐飲類,,25.071521,折價,便利超商,台北市大同區重慶北路3段260號,2011/05/1起,00:00-24:00,City caf / 思樂冰 650ml以上折價2元，以下折價1元,自備飲料杯
,7-ELEVEN(台北市第六五八分公司),中山區,,,02-2563-8651,121.526524,餐飲類,,25.049147,折價,便利超商,台北市中山區長安東路1段53巷1-3號,2011/05/1起,00:00-24:00,City caf / 思樂冰 650ml以上折價2元，以下折價1元,自備飲料杯
,聖德科斯天然有機門市(羅東倉前門市),羅東鎮,,,039-566-998,121.768793,餐飲類,,24.680972,折價,其他,宜蘭縣羅東鎮倉前路99號,2012/08/01起,07:30~21:00,自備環保杯來店購買任一現打飲品或研磨現煮有機咖啡的折價2元,自備飲料杯
,星巴克(台北市第六十九分公司),中正區,,,02-2371-7092,121.51735,餐飲類,,25.04707,折價,飲料店,台北市中正區忠孝西路1段49號B1(台北車站新世界廣場往高台鐵方向),2011/05/1起,11:00-22:00,飲品折價10元,自備飲料杯
,古早味A肥茶(台視分公司),松山區,,,02-2762-8405,121.567973,餐飲類,,25.051105,折價,飲料店,台北市松山區南京東路5段314號,2011/05/1起,11:00-22:00,500ml折價1元，700ml折價2元，960ml折價3元,自備飲料杯
,喫茶趣(士林分公司),士林區,,,02-2838-4577,121.52325,餐飲類,,25.094837,折價,飲料店,台北市士林區中正路300號(光華戲院對面),2011/05/1起,11:00-22:00,500ml折價2元,自備飲料杯
,COME  BUY(安居二店),大安區,,,02-8732-1829,121.55542,餐飲類,,25.021513,集點,飲料店,台北市大安區和平東路3段258號,2011/05/1起,11:00-22:00,每杯1點，集10點可兌換30元飲品1杯,自備飲料杯
,阿二冰茶(崇光門市),大安區,,,02-2369-5704,121.529307,餐飲類,,25.023813,折價,飲料店,台北市大安區龍泉街54號,2011/05/1起,11:00-22:00,650ml(含)以上折價2元，以下折價1元,自備飲料杯
,7-ELEVEN(台北市第四二九分公司),中正區,,,02-2327-8931,121.522623,餐飲類,,25.042721,折價,便利超商,台北市中正區林森南路12號,2011/05/1起,00:00-24:00,City caf / 思樂冰 650ml以上折價2元，以下折價1元,自備飲料杯
,巧沛國際(寧夏店),大同區,,,02-25536093,121.51516,餐飲類,,25.058223,折價,早餐店,台北市大同區寧夏路84號,2011/09/01起,07:00-11:00,折價1元,自備飲料杯
,全家便利商店(興安分公司),中山區,,,02-2505-2013,121.54239,餐飲類,,25.056234,折價,便利超商,台北市中山區興安街57號,2011/05/1起,00:00-24:00,全家伯朗咖啡館 飲品折價3元,自備飲料杯
,88嫩仙草(信義吳興店),信義區,,,02-2345-0860,121.56041,餐飲類,,25.031043,折價,飲料店,台北市信義區吳興街57號,2011/05/1起,11:00-22:00,飲品折價3元,自備飲料杯
,50嵐(中坡店),南港區,,,02-2653-7139,121.582329,餐飲類,,25.044091,折價,飲料店,台北市南港區中坡南路5號,2011/05/1起,11:00-22:00,大杯折價2元，中杯折價1元,自備飲料杯
,聖德科斯天然有機門市(新竹光華門市),北區,,,03-532-8508,120.972269,餐飲類,,24.817916,折價,其他,新竹市北區光華街96號1樓,2012/08/01起,07:30~21:00,自備環保杯來店購買任一現打飲品或研磨現煮有機咖啡的折價2元,自備飲料杯
,橘子(政大店),文山區,,,02-2234-3273,121.574709,餐飲類,,24.987772,集點,飲料店,台北市文山區指南路2段30號,2011/05/1起,11:00-22:00,每杯1點，集5點可兌換15元飲品，或加價換購其他飲品(果汁除外),自備飲料杯
,傳奇18度C(六張犁店),大安區,,,02-8732-4266,121.554102,餐飲類,,25.021877,折價,飲料店,台北市大安區和平東路3段228巷22號,2011/05/1起,11:00-22:00,500ml折價1元，700ml折價2元，960ml折價5元,自備飲料杯
,50嵐(雙連店),中山區,,,02-2563-1567,121.521452,餐飲類,,25.060239,折價,飲料店,台北市中山區錦西街14號,2011/05/1起,11:00-22:00,大杯折價2元，中杯折價1元,自備飲料杯
,快樂地水果吧(台北101店),信義區,,,02-8101-7823,121.564101,餐飲類,,25.033493,折價,飲料店,台北市信義區市府路45號B1(101金融大樓),2011/05/1起,11:00-22:00,飲品折價2元,自備飲料杯
,7-ELEVEN(台北市第二0九分公司),大安區,,,02-2721-8275,121.546913,餐飲類,,25.038214,折價,便利超商,台北市大安區仁愛路4段65號1樓,2011/05/1起,00:00-24:00,City caf / 思樂冰 650ml以上折價2元，以下折價1元,自備飲料杯
,7-ELEVEN(掬華門市),萬華區,,,02-2337-5810,121.508222,餐飲類,,25.025953,折價,便利超商,台北市萬華區中華路2段407號,2011/05/1起,00:00-24:00,City caf / 思樂冰 650ml以上折價2元，以下折價1元,自備飲料杯
,歇腳亭(南西店),中山區,,,02-2562-5100,121.521043,餐飲類,,25.051398,集點,飲料店,台北市中山區長安西路19巷35號1樓,2011/05/1起,11:00-22:00,每杯2點，集10點可兌或折抵35元以下飲料1杯,自備飲料杯
,全家便利商店(蘭州分公司),大同區,,,02-2598-0054,121.516038,餐飲類,,25.067407,折價,便利超商,台北市大同區大龍街133號,2011/05/1起,00:00-24:00,全家伯朗咖啡館 飲品折價3元,自備飲料杯
,麥當勞(台北信義分公司),大安區,,,02-2393-0023,121.522371,餐飲類,,25.027535,集點,速食店,台北市大安區羅斯福路2段45號,2011/05/1起,11:00-22:00,每杯1點，集5點可兌換30元飲料1杯(奶昔、漂浮飲品及免費飲料不在集點範圍內),自備飲料杯
,7-ELEVEN(開寧門市),萬華區,,,02-2388-4024,121.506892,餐飲類,,25.046539,折價,便利超商,台北市萬華區西寧南路16號,2011/05/1起,00:00-24:00,City caf / 思樂冰 650ml以上折價2元，以下折價1元,自備飲料杯
,7-ELEVEN(台北市第一五一分公司),文山區,,,02-2937-9722,121.56238,餐飲類,,24.984512,折價,便利超商,台北市文山區忠順街2段10號,2011/05/1起,00:00-24:00,City caf / 思樂冰 650ml以上折價2元，以下折價1元,自備飲料杯
,85度C(台北吉林店),中山區,,,02-2543-1472,121.530428,餐飲類,,25.060009,折價,飲料店,台北市中山區吉林路201號,2011/05/1起,11:00-22:00,飲品折價3元,自備飲料杯
,全家便利商店(寶清分公司),松山區,,,02-2577-6466,121.552507,餐飲類,,25.046262,折價,便利超商,台北市松山區八德路3段74巷43號,2011/05/1起,00:00-24:00,全家伯朗咖啡館 飲品折價3元,自備飲料杯
,怡客咖啡(杭州分公司),中正區,,,02-2393-1855,121.519033,餐飲類,,25.036731,折價,飲料店,台北市中正區中山南路21-1號(誠品書店內),2011/05/1起,11:00-22:00,飲品折價5元，若與店內其它優惠用折價1元,自備飲料杯
,7-ELEVEN(台北市第四五五分公司),中山區,,,02-2501-3144,121.540876,餐飲類,,25.066902,折價,便利超商,台北市中山區龍江路384巷1號,2011/05/1起,00:00-24:00,City caf / 思樂冰 650ml以上折價2元，以下折價1元,自備飲料杯
,萊爾富(北市衣蝶分公司),大同區,,,02-2550-6216,121.518988,餐飲類,,25.053135,折價,便利超商,台北市大同區南京西路63號1樓,2011/05/1起,00:00-24:00,Hi Caf 飲品折價3元,自備飲料杯
,西雅圖咖啡(內湖禮客店),內湖區,,,02-8792-4510,121.57476,餐飲類,,25.064243,折價,飲料店,台北市內湖區民善街205號(禮客OUTLET),2011/05/1起,11:00-22:00,飲品折價5元,自備飲料杯
,MisterDonuts(西門町門市),萬華區,,,02-2314-3238,121.507281,餐飲類,,25.043162,折價,飲料店,台北市萬華區漢中街110號,2011/05/1起,11:00-22:00,飲品折價3元(若該飲品使用優惠免費贈送者，無享折價優惠),自備飲料杯
,85度C(台北錦州店),中山區,,,02-2521-6708,121.524682,餐飲類,,25.060181,折價,飲料店,台北市中山區錦州街28-8號,2011/05/1起,11:00-22:00,飲品折價3元,自備飲料杯
,7-ELEVEN(聚鑫門市),士林區,,,02-8811-1492,121.501219,餐飲類,,25.090706,折價,便利超商,台北市士林區延平北路6段350號,2011/05/1起,00:00-24:00,City caf / 思樂冰 650ml以上折價2元，以下折價1元,自備飲料杯
,丹堤咖啡(信義分公司),大安區,,,02-2706-1080,121.542603,餐飲類,,25.033183,折價,飲料店,台北市大安區信義路3段184號,2011/05/1起,11:00-22:00,飲品折價5元,自備飲料杯
,7-ELEVEN(大安門市部),大安區,,,02-2741-7576,121.546223,餐飲類,,25.04186,折價,便利超商,台北市大安區大安路1段77號,2011/05/1起,00:00-24:00,City caf / 思樂冰 650ml以上折價2元，以下折價1元,自備飲料杯
,水巷茶弄(敦新分公司),大安區,,,,121.531869,餐飲類,,25.03383,折價,飲料店,台北市大安區信義路2段269號,2011/05/1起,11:00-22:00,飲品折價2元,自備飲料杯
,IS COFFEE(安和三分公司),大安區,,,02-2701-0881,121.550949,餐飲類,,25.030031,折價,飲料店,台北市大安區敦化南路2段81巷57號,2011/05/1起,11:00-22:00,飲品折價5元,自備飲料杯
,7-ELEVEN(台北市第四四四分公司),松山區,,,02-8712-4237,121.547491,餐飲類,,25.052549,折價,便利超商,台北市松山區南京東路3段335巷5-3號,2011/05/1起,00:00-24:00,City caf / 思樂冰 650ml以上折價2元，以下折價1元,自備飲料杯
,伯朗咖啡(台北北投分公司),北投區,,,02-2891-0241,121.50105,餐飲類,,25.139607,折價,飲料店,台北市北投區中和街249號,2011/05/1起,11:00-22:00,飲品折價3元,自備飲料杯
,橘子(和平店),大安區,,,02-2700-2701,121.54514,餐飲類,,25.02501,集點,飲料店,台北市大安區和平東路2段311巷7號,2011/05/1起,11:00-22:00,每杯1點，集5點可兌換15元飲品，或加價換購其他飲品(果汁除外),自備飲料杯
,7-ELEVEN(台北市第三九九分公司),內湖區,,,02-8791-0570,121.599662,餐飲類,,25.084854,折價,便利超商,台北市內湖區成功路4段346號,2011/05/1起,00:00-24:00,City caf / 思樂冰 650ml以上折價2元，以下折價1元,自備飲料杯
,全家便利商店(京江分公司),中山區,,,02-2567-8224,121.531426,餐飲類,,25.052628,折價,便利超商,台北市中山區一江街22號,2011/05/1起,00:00-24:00,全家伯朗咖啡館 飲品折價3元,自備飲料杯
,伯朗咖啡(京華店),松山區,,,02-2775-5583,121.553981,餐飲類,,25.044179,折價,飲料店,台北市松山區市民大道4段190號1樓,2011/05/1起,11:00-22:00,飲品折價3元,自備飲料杯
,7-ELEVEN(台北市第一一三分公司),中正區,,,02-2322-1617,121.518746,餐飲類,,25.031515,折價,便利超商,台北市中正區寧波西街3號,2011/05/1起,00:00-24:00,City caf / 思樂冰 650ml以上折價2元，以下折價1元,自備飲料杯
,清心福全(台北信義松隆店),信義區,,,02-2765-5768,121.579414,餐飲類,,25.048012,折價,飲料店,台北市信義區松隆路362號之3,2011/05/1起,11:00-22:00,650ml(含)以上折價2元，以下折價1元,自備飲料杯
,7-ELEVEN(台北市第二0七分公司),中山區,,,02-2593-1799,121.525596,餐飲類,,25.065,折價,便利超商,台北市中山區林森北路572號,2011/05/1起,00:00-24:00,City caf / 思樂冰 650ml以上折價2元，以下折價1元,自備飲料杯
,肯德基(光華門市部),中正區,,,02-2375-4945,121.515241,餐飲類,,25.046139,集點,速食店,台北市中正區忠孝西路1段66號B1(新光三越百貨),2011/05/1起,11:00-22:00,每杯1點，集5點可兌換32元以內杯裝飲料(不含湯品、100%柳橙汁、瓶裝、罐裝等飲料或包裝水),自備飲料杯
,全家便利商店(大通分公司),中山區,,,02-2515-3716,121.534854,餐飲類,,25.050693,折價,便利超商,台北市中山區伊通街39號1樓,2011/05/1起,00:00-24:00,全家伯朗咖啡館 飲品折價3元,自備飲料杯
,橘子(伊通店),中山區,,,02-2501-5551,121.534959,餐飲類,,25.054241,集點,飲料店,台北市中山區伊通街127-4號,2011/05/1起,11:00-22:00,每杯1點，集5點可兌換15元飲品，或加價換購其他飲品(果汁除外),自備飲料杯
,聖德科斯天然有機門市(延平北門市),大同區,,,02-2553-0761,121.511402,餐飲類,,25.05795,折價,其他,臺北市大同區延平北路二段156號,2012/08/01起,07:30~21:00,自備環保杯來店購買任一現打飲品或研磨現煮有機咖啡的折價2元,自備飲料杯
,OK超商(第255分公司),內湖區,,,02-2794-6153,121.591231,餐飲類,,25.086205,折價,便利超商,台北市內湖區內湖路3段91號1樓,2011/05/1起,00:00-24:00,OK Caf 飲品折價3元,自備飲料杯
,OK超商(第509分公司),內湖區,,,02-6617-2432,121.581826,餐飲類,,25.055427,折價,便利超商,台北市內湖區新明路316號,2011/05/1起,00:00-24:00,OK Caf 飲品折價3元,自備飲料杯
,漢晶,大安區,,,02-23642728,121.528576,餐飲類,,25.026086,折價,中式,臺北市大安區師大路9號B1,2009/07/01-2012/12/31,07:00-19:00,折價2元,自備全套餐具
,早安美芝城(德安店),內湖區,,,02-87927939,121.591558,餐飲類,,25.081774,折價,早餐店,台北市內湖區成功路4段30巷3號1樓,2011/09/01起,07:00-11:00,折價1元,自備飲料杯
,50嵐(西門店),萬華區,,,02-2381-9080,121.507163,餐飲類,,25.041904,折價,飲料店,台北市萬華區漢中街130號,2011/05/1起,11:00-22:00,大杯折價2元，中杯折價1元,自備飲料杯
,7-ELEVEN(台北市第二一四分公司),松山區,,,02-2545-0784,121.54741,餐飲類,,25.058518,折價,便利超商,台北市松山區民生東路3段127巷6號,2011/05/1起,00:00-24:00,City caf / 思樂冰 650ml以上折價2元，以下折價1元,自備飲料杯
,7-ELEVEN(台北市第五0九分公司),內湖區,,,02-8751-2874,121.585314,餐飲類,,25.074975,折價,便利超商,台北市內湖區陽光街159號1樓,2011/05/1起,00:00-24:00,City caf / 思樂冰 650ml以上折價2元，以下折價1元,自備飲料杯
,巧沛國際(合江店),中山區,,,02-25027129,121.539152,餐飲類,,25.060894,折價,早餐店,台北市中山區合江街176號,2011/09/01起,07:00-11:00,折價1元,自備飲料杯
,星巴克(台北市第六十三分公司),北投區,,,02-2898-1051,121.504383,餐飲類,,25.136201,折價,飲料店,台北市北投區光明路218-4號,2011/05/1起,11:00-22:00,飲品折價10元,自備飲料杯
,橘子工坊(內湖麗山店),內湖區,,,02-2657-7272,121.572182,餐飲類,,25.08129,集點,飲料店,台北市內湖區內湖路1段443號(麗山街口),2011/05/1起,11:00-22:00,每杯1點，集10點可兌換30元飲品，或補差額換購30元以上飲料,自備飲料杯
,7-ELEVEN(台北市第二二五分公司),北投區,,,02-2893-5095,121.499763,餐飲類,,25.140968,折價,便利超商,台北市北投區中和街318號,2011/05/1起,00:00-24:00,City caf / 思樂冰 650ml以上折價2元，以下折價1元,自備飲料杯
,呷尚寶(復華店),中正區,,,02-23516735,121.532366,餐飲類,,25.035694,折價,早餐店,台北市中正區新生南路1段144之9號,2011/09/01起,07:00-11:00,折價1元,自備飲料杯
,7-ELEVEN(台北市第四十四分公司),北投區,,,02-2896-3137,121.501056,餐飲類,,25.130534,折價,便利超商,台北市北投區中央南路1段114號,2011/05/1起,00:00-24:00,City caf / 思樂冰 650ml以上折價2元，以下折價1元,自備飲料杯
,7-ELEVEN(台北市第三四七分公司),中山區,,,02-2511-6854,121.520028,餐飲類,,25.062646,折價,便利超商,台北市中山區民權西路66號,2011/05/1起,00:00-24:00,City caf / 思樂冰 650ml以上折價2元，以下折價1元,自備飲料杯
,呷尚寶(興安店),中山區,,,02-25011125,121.540611,餐飲類,,25.056636,折價,早餐店,台北市中山區龍江路211號,2011/09/01起,07:00-11:00,折價1元,自備飲料杯
,萊爾富(北市麥帥分公司),內湖區,,,02-8790-1427,121.576046,餐飲類,,25.056605,折價,便利超商,台北市內湖區行善路33號,2011/05/1起,00:00-24:00,Hi Caf 飲品折價3元,自備飲料杯
,萊爾富(第三六二九分公司),南港區,,,02-2651-8142,121.622309,餐飲類,,25.038316,折價,便利超商,台北市南港區舊莊街1段212巷2號,2011/05/1起,00:00-24:00,Hi Caf 飲品折價3元,自備飲料杯
,怡客咖啡(龍江分公司),中山區,,,02-2518-1505,121.540395,餐飲類,,25.059184,折價,飲料店,台北市中山區龍江路244-1號,2011/05/1起,11:00-22:00,飲品折價5元，若與店內其它優惠用折價1元,自備飲料杯
,全家便利商店(木柵路分公司),文山區,,,02-29362952,121.568609,餐飲類,,24.988878,折價,便利超商,台北市文山區木柵路3段148、150號,2011/05/1起,00:00-24:00,全家伯朗咖啡館 飲品折價3元,自備飲料杯
,Mr.wish(台北民生東三店),松山區,,,02-2716-1218,121.546077,餐飲類,,25.056666,折價,飲料店,台北市松山區民生東路3段130巷14號,2011/05/1起,11:00-10:00,650ml(含)以上折價2元，以下折價1元,自備飲料杯
,府城鵝肉,信義區,,,02-27290132,121.56408,餐飲類,,25.026762,折價,中式,臺北市信義區吳興街271號,2010/11/30-2015/12/31,11:00-20:00,折價1元,自備筷子或湯匙 ; 限外帶
,萊爾富(昆陽分公司),南港區,,,02-2653-7383,121.593777,餐飲類,,25.051458,折價,便利超商,台北市南港區昆陽街99號,2011/05/1起,00:00-24:00,Hi Caf 飲品折價3元,自備飲料杯
,7-ELEVEN(台北市第一九五分公司),內湖區,,,02-2798-9549,121.571933,餐飲類,,25.081248,折價,便利超商,台北市內湖區內湖路1段435號,2011/05/1起,00:00-24:00,City caf / 思樂冰 650ml以上折價2元，以下折價1元,自備飲料杯
,聖德科斯天然有機門市(永和福和門市),永和區,,,02-2920-9198,121.52058,餐飲類,,25.007926,折價,其他,新北市永和區福和路180號,2012/08/01起,07:30~21:00,自備環保杯來店購買任一現打飲品或研磨現煮有機咖啡的折價2元,自備飲料杯
,水巷茶弄(台北永吉店),信義區,,,02-2764-5638,121.568896,餐飲類,,25.043798,折價,飲料店,台北市信義區永吉路30巷91號1樓,2011/05/1起,11:00-22:00,飲品折價2元,自備飲料杯
,7-ELEVEN(台北市第五一五分公司),文山區,,,02-2931-4829,121.547032,餐飲類,,24.995788,折價,便利超商,台北市文山區景華街130號,2011/05/1起,00:00-24:00,City caf / 思樂冰 650ml以上折價2元，以下折價1元,自備飲料杯
,聖德科斯天然有機門市(嘉義北港門市),西區,,,05-291-0002,120.429434,餐飲類,,23.480402,折價,其他,嘉義市西區北港路267、269號1樓,2012/08/01起,07:30~21:00,自備環保杯來店購買任一現打飲品或研磨現煮有機咖啡的折價2元,自備飲料杯
,7-ELEVEN(台北市第四六二分公司),內湖區,,,02-2658-6174,121.568966,餐飲類,,25.079267,折價,便利超商,台北市內湖區瑞光路517號1樓,2011/05/1起,00:00-24:00,City caf / 思樂冰 650ml以上折價2元，以下折價1元,自備飲料杯
,7-ELEVEN(台北市第五十分公司),大安區,,,02-2708-1857,121.552397,餐飲類,,25.0347,折價,便利超商,台北市大安區安和路1段86號,2011/05/1起,00:00-24:00,City caf / 思樂冰 650ml以上折價2元，以下折價1元,自備飲料杯
,7-ELEVEN(台北市第六十六分公司),大安區,,,02-2343-5837,121.521972,餐飲類,,25.028677,折價,便利超商,台北市大安區杭州南路2段91號,2011/05/1起,00:00-24:00,City caf / 思樂冰 650ml以上折價2元，以下折價1元,自備飲料杯
,7-ELEVEN(台北市第四九一分公司),中山區,,,02-8509-5582,121.556904,餐飲類,,25.079811,折價,便利超商,台北市中山區樂群二路142號,2011/05/1起,00:00-24:00,City caf / 思樂冰 650ml以上折價2元，以下折價1元,自備飲料杯
,cama現烘咖啡專賣店(南京新生店),中山區,,,02-2522-1369,121.52836,餐飲類,,25.05192,折價,飲料店,台北市中山區南京東路2段6號,2011/05/1起,11:00-22:00,飲品折價1元,自備飲料杯
,全家便利商店(公園分公司),萬華區,,,02-2305-1904,121.50405,餐飲類,,25.025485,折價,便利超商,台北市萬華區青年路48號1樓,2011/05/1起,00:00-24:00,全家伯朗咖啡館 飲品折價3元,自備飲料杯
,清心福全(台北大安臨江店),大安區,,,02-2325-6696,121.546164,餐飲類,,25.034648,折價,飲料店,台北市大安區大安路1段223號,2011/05/1起,11:00-22:00,650ml(含)以上折價2元，以下折價1元,自備飲料杯
,京兆尹有限公司,大安區,,,02-27013225,121.548026,餐飲類,,25.036607,折價,素食,臺北市大安區四維路18號,2012/07/15-2013/12/31,11:00~21:00,9折優惠,自備筷子、湯匙及水杯
,7-ELEVEN(台北市第六十二分公司),中正區,,,02-2382-1963,121.513777,餐飲類,,25.042208,折價,便利超商,台北市中正區衡陽路6號,2011/05/1起,00:00-24:00,City caf / 思樂冰 650ml以上折價2元，以下折價1元,自備飲料杯
,星巴克(台北市第三十三分公司),大同區,,,02-2552-7432,121.516739,餐飲類,,25.049364,折價,飲料店,台北市大同區承德路1段1號,2011/05/1起,11:00-22:00,飲品折價10元,自備飲料杯
,全家便利商店(長林分公司),中山區,,,02-2562-9310,121.526789,餐飲類,,25.049795,折價,便利超商,台北市中山區林森北路107巷54號,2011/05/1起,00:00-24:00,全家伯朗咖啡館 飲品折價3元,自備飲料杯
,清心福全(台北信義永吉店),信義區,,,02-2761-1525,121.568931,餐飲類,,25.044183,折價,飲料店,台北市信義區永吉路30巷73-2號,2011/05/1起,11:00-22:00,650ml(含)以上折價2元，以下折價1元,自備飲料杯
,Subway(陽明山店),士林區,,,02-2861-7999,121.517,餐飲類,,25.0833,折價,速食店,台北市士林區陽明格致路14號1樓,2011/05/1起,11:00-22:00,651ml(含)以上折價3元，501至650ml折價2元，500ml(含)以下折1元,自備飲料杯
,全家便利商店(萬全分公司),大同區,,,02-2553-2032,121.513502,餐飲類,,25.057736,折價,便利超商,台北市大同區重慶北路2段116號1樓,2011/05/1起,00:00-24:00,全家伯朗咖啡館 飲品折價3元,自備飲料杯
,巧沛國際(民權店),松山區,,,02-27127262,121.547885,餐飲類,,25.060779,折價,早餐店,台北市松山區民權東路3段160巷9號,2011/09/01起,07:00-11:00,折價1元,自備飲料杯
,7-ELEVEN(台北市第三三三分公司),北投區,,,02-2871-5743,121.52279,餐飲類,,25.121407,折價,便利超商,台北市北投區石牌路2段301號(榮民總醫院生活廣場),2011/05/1起,00:00-24:00,City caf / 思樂冰 650ml以上折價2元，以下折價1元,自備飲料杯
,清心福全(台北士林文林店),士林區,,,02-2883-1698,121.526923,餐飲類,,25.089837,折價,飲料店,台北市士林區文林路197號,2011/05/1起,11:00-22:00,650ml(含)以上折價2元，以下折價1元,自備飲料杯
,丹堤咖啡(士林分公司),士林區,,,02-8866-1242,121.523319,餐飲類,,25.094894,折價,飲料店,台北市士林區中正路296號,2011/05/1起,11:00-22:00,飲品折價5元,自備飲料杯
,萊爾富(北市康寧分公司),內湖區,,,02-2633-7880,121.611469,餐飲類,,25.070487,折價,便利超商,台北市內湖區康寧路3段155號,2011/05/1起,00:00-24:00,Hi Caf 飲品折價3元,自備飲料杯
,麥當勞(台北中央),北投區,,,02-2895-263802-2895-2515,121.467724,餐飲類,,25.128013,集點,速食店,台北市北投區中央北路4段534號1樓,2011/05/1起,11:00-22:00,每杯1點，集5點可兌換30元飲料1杯(奶昔、漂浮飲品及免費飲料不在集點範圍內),自備飲料杯
,肯德基(台北東湖二分公司),內湖區,,,02-2633-0345,121.616274,餐飲類,,25.068085,集點,速食店,台北市內湖區東湖路122號,2011/05/1起,11:00-22:00,每杯1點，集5點可兌換32元以內杯裝飲料(不含湯品、100%柳橙汁、瓶裝、罐裝等飲料或包裝水),自備飲料杯
,Subway(龍安店),大安區,,,02-2368-0007,121.534508,餐飲類,,25.025254,折價,速食店,台北市大安區新生南路3段8號1樓,2011/05/1起,11:00-22:00,651ml(含)以上折價3元，501至650ml折價2元，500ml(含)以下折1元,自備飲料杯
,7-ELEVEN(台北市第二八三分公司),信義區,,,02-2766-3728,121.563704,餐飲類,,25.041892,折價,便利超商,台北市信義區忠孝東路4段559巷6號1樓,2011/05/1起,00:00-24:00,City caf / 思樂冰 650ml以上折價2元，以下折價1元,自備飲料杯
,7-ELEVEN(台北市第三0六分公司),北投區,,,02-2820-3682,121.502767,餐飲類,,25.118765,折價,便利超商,台北市北投區承德路7段378號,2011/05/1起,00:00-24:00,City caf / 思樂冰 650ml以上折價2元，以下折價1元,自備飲料杯
,麥當勞(民生社區分公司),松山區,,,"02-2768-9449
02-2768-9468",121.563027,餐飲類,,25.051241,集點,速食店,台北市松山區南京東路5段162號1樓,2011/05/1起,11:00-22:00,每杯1點，集5點可兌換30元飲料1杯(奶昔、漂浮飲品及免費飲料不在集點範圍內),自備飲料杯
,7-ELEVEN(臺北(二)販賣部),中正區,,,02-2311-6435,121.515698,餐飲類,,25.048203,折價,便利超商,台北市中正區北平西路3號B1,2011/05/1起,00:00-24:00,City caf / 思樂冰 650ml以上折價2元，以下折價1元,自備飲料杯
,星巴克(台北市第六十七分公司),中正區,,,02-2383-1251,121.517448,餐飲類,,25.046459,折價,飲料店,台北市中正區忠孝西路1段47號B1,2011/05/1起,11:00-22:00,飲品折價10元,自備飲料杯
,7-ELEVEN(台北市第五00分公司),信義區,,,02-2762-7486,121.577578,餐飲類,,25.04727,折價,便利超商,台北市信義區松山路136、138號,2011/05/1起,00:00-24:00,City caf / 思樂冰 650ml以上折價2元，以下折價1元,自備飲料杯
,全家便利商店(時代門市部),內湖區,,,02-8797-6824,121.571231,餐飲類,,25.078575,折價,便利超商,台北市內湖區瑞光路413、415號,2011/05/1起,00:00-24:00,全家伯朗咖啡館 飲品折價3元,自備飲料杯
,巧沛國際(台北立德店),北投區,,,02-28588016,121.472043,餐飲類,,25.125755,折價,早餐店,台北市北投區立德路66號,2011/09/01起,07:00-11:00,折價1元,自備飲料杯
,Subway(小南門店),中正區,,,02-2371-1851,121.507778,餐飲類,,25.03508,折價,速食店,台北市中正區延平南路165號,2011/05/1起,11:00-22:00,651ml(含)以上折價3元，501至650ml折價2元，500ml(含)以下折1元,自備飲料杯
,7-ELEVEN(華經門市),內湖區,,,02-2790-6651,121.577604,餐飲類,,25.06525,折價,便利超商,台北市內湖區行忠路30號,2011/05/1起,00:00-24:00,City caf / 思樂冰 650ml以上折價2元，以下折價1元,自備飲料杯
,全家便利商店(力晶分公司),松山區,,,02-2747-3064,121.559936,餐飲類,,25.049818,折價,便利超商,台北市松山區光復北路11巷50號,2011/05/1起,00:00-24:00,全家伯朗咖啡館 飲品折價3元,自備飲料杯
,7-ELEVEN(台北市第七十二分公司),南港區,,,02-2651-3567,121.600903,餐飲類,,25.057143,折價,便利超商,台北市南港區重陽路164號,2011/05/1起,00:00-24:00,City caf / 思樂冰 650ml以上折價2元，以下折價1元,自備飲料杯
,清心福全(台北信義松山店),信義區,,,02-2759-3118,121.578274,餐飲類,,25.036673,折價,飲料店,台北市信義區松山路590號,2011/05/1起,11:00-22:00,650ml(含)以上折價2元，以下折價1元,自備飲料杯
,清心福全(台北中山長春店),中山區,,,02-2509-3223,121.541632,餐飲類,,25.054778,折價,飲料店,台北市中山區長春路283-4號,2011/05/1起,11:00-22:00,650ml(含)以上折價2元，以下折價1元,自備飲料杯
,OK超商(開封店),萬華區,,,02-6617-0520,121.504616,餐飲類,,25.047042,折價,便利超商,台北市萬華區開封街2段84號,2011/05/1起,00:00-24:00,OK Caf 飲品折價3元,自備飲料杯
,7-ELEVEN(台北市第二一六分公司),松山區,,,02-2570-0119,121.549139,餐飲類,,25.047157,折價,便利超商,台北市松山區敦化南路1段5號,2011/05/1起,00:00-24:00,City caf / 思樂冰 650ml以上折價2元，以下折價1元,自備飲料杯
,天仁喫茶趣(微風台北車站店),中正區,,,02-2388-0756,121.515698,餐飲類,,25.048203,折價,飲料店,台北市中正區北平西路3號2樓,2011/05/1起,11:00-22:00,500ml折價2元,自備飲料杯
,全家便利商店(興亞分公司),中山區,,,02-2531-2051,121.529024,餐飲類,,25.051878,折價,便利超商,台北市中山區南京東路2段26號,2011/05/1起,00:00-24:00,全家伯朗咖啡館 飲品折價3元,自備飲料杯
,全家便利商店(士誠分公司),士林區,,,02-2833-8941,121.528843,餐飲類,,25.112007,折價,便利超商,台北市士林區士東路86號,2011/05/1起,00:00-24:00,全家伯朗咖啡館 飲品折價3元,自備飲料杯
,都可COCO(台北敦南分公司),大安區,,,02-2709-5052 ,121.554156,餐飲類,,25.030661,折價,飲料店,台北市大安區通化街50號,2011/05/1起,11:00-22:00,飲品折價2元,自備飲料杯
,漢堡王(光華門市部),中正區,,,02-2321-2741,121.531433,餐飲類,,25.044134,集點,速食店,台北市中正區八德路1段31號,2011/05/1起,11:00-22:00,每杯1點，集10點可兌換30元飲料1杯,自備飲料杯
,黑面蔡楊桃汁(忠孝店 ),大安區,,,02-2711-7610,121.552851,餐飲類,,25.039964,集點,飲料店,台北市大安區忠孝東路4段216巷30號,2011/05/1起,11:00-22:00,每杯1點，集10點可兌換30元商品，或補差額換購30元以上商品,自備飲料杯
,摩斯漢堡(信義A8店),信義區,,,02-2725-3040,121.566663,餐飲類,,25.038882,集點,速食店,台北市信義區松高路12號B2,2011/05/1起,11:00-22:00,每杯1點，集5點可兌換30元商品，集10點可兌換60元商品(前述不含罐裝、瓶裝非現場填裝)飲料,自備飲料杯
,全家便利商店(寧夏分公司),大同區,,,02-2585-6201,121.51412,餐飲類,,25.07456,折價,便利超商,台北市大同區重慶北路3段333號,2011/05/1起,00:00-24:00,全家伯朗咖啡館 飲品折價3元,自備飲料杯
,萊爾富(北市萬都店),萬華區,,,02-2314-6537,121.506814,餐飲類,,25.042666,折價,便利超商,台北市萬華區成都路29、31號1樓,2011/05/1起,00:00-24:00,Hi Caf 飲品折價3元,自備飲料杯
,萊爾富(師鐕店),文山區,,,02-2932-6952,121.57125,餐飲類,,24.992921,折價,便利超商,台北市文山區汀洲路4段88號,2011/05/1起,00:00-24:00,Hi Caf 飲品折價3元,自備飲料杯
,麥當勞(羅斯福路分公司),中正區,,,"02-2389-2817
02-2389-2818",121.5091,餐飲類,,25.041668,集點,速食店,台北市中正區寶慶路32號B1,2011/05/1起,11:00-22:00,每杯1點，集5點可兌換30元飲料1杯(奶昔、漂浮飲品及免費飲料不在集點範圍內),自備飲料杯
,萊爾富(北市文武分公司),文山區,,,02-8931-5646,121.539044,餐飲類,,25.002324,折價,便利超商,台北市文山區羅斯福路5段203號,2011/05/1起,00:00-24:00,Hi Caf 飲品折價3元,自備飲料杯
,摩斯漢堡(羅斯福路分公司),大安區,,,02-3365-2482,121.529815,餐飲類,,25.019505,集點,速食店,台北市大安區羅斯福路3段233號,2011/05/1起,11:00-22:00,每杯1點，集5點可兌換30元商品，集10點可兌換60元商品(前述不含罐裝、瓶裝非現場填裝)飲料,自備飲料杯
,7-ELEVEN(台北市第六五0分公司),大安區,,,02 2709-5283,121.551404,餐飲類,,25.033404,折價,便利超商,台北市大安區信義路4段197號,2011/05/1起,00:00-24:00,City caf / 思樂冰 650ml以上折價2元，以下折價1元,自備飲料杯
,聖德科斯天然有機門市(新店北新門市),新店區,,,02-2918-1609,121.540771,餐飲類,,24.96666,折價,其他,新北市新店區北新路一段267號,2012/08/01起,07:30~21:00,自備環保杯來店購買任一現打飲品或研磨現煮有機咖啡的折價2元,自備飲料杯
,頂呱呱(福林分公司),士林區,,,02-2883-9272,121.526066,餐飲類,,25.094699,集點,速食店,台北市士林區中正路235巷16號,2011/05/1起,11:00-22:00,每杯1點，集5點可兌換32元飲料1杯,自備飲料杯
,巧沛國際(佳佳店),中山區,,,02-25030105,121.53609,餐飲類,,25.061423,折價,早餐店,台北市中山區民權東路2段152巷6號,2011/09/01起,07:00-11:00,折價1元,自備飲料杯
,金咖啡(北忠孝門市),信義區,,,02-2528-9696,121.568429,餐飲類,,25.041299,折價,飲料店,台北市信義區忠孝東路5段159號,2011/05/1起,11:00-22:00,飲品折價5元,自備飲料杯
,丹堤咖啡(莊敬店),信義區,,,02-8786-2763,121.561155,餐飲類,,25.031021,折價,飲料店,台北市信義區莊敬路182號,2011/05/1起,11:00-22:00,飲品折價5元,自備飲料杯
,7-ELEVEN(台北市第二四一分公司),大同區,,,02-2599-5416,121.518528,餐飲類,,25.065192,折價,便利超商,台北市大同區承德路3段53號,2011/05/1起,00:00-24:00,City caf / 思樂冰 650ml以上折價2元，以下折價1元,自備飲料杯
,水巷茶弄(台北大直店),中山區,,,02-2533-3302,121.546442,餐飲類,,25.082458,折價,飲料店,台北市中山區大直街37號,2011/05/1起,11:00-22:00,飲品折價2元,自備飲料杯
,7-ELEVEN(台北市第四九五分公司),大安區,,,02-2701-8486,121.544694,餐飲類,,25.03312,折價,便利超商,台北市大安區信義路4段32號1樓,2011/05/1起,00:00-24:00,City caf / 思樂冰 650ml以上折價2元，以下折價1元,自備飲料杯
,全家便利商店(長通分公司),中山區,,,02-2502-9136,121.534678,餐飲類,,25.05408,折價,便利超商,台北市中山區伊通街108號,2011/05/1起,00:00-24:00,全家伯朗咖啡館 飲品折價3元,自備飲料杯
,7-ELEVEN(台北市第四八一分公司),中山區,,,02-2509-9216,121.540944,餐飲類,,25.058122,折價,便利超商,台北市中山區龍江路239號,2011/05/1起,00:00-24:00,City caf / 思樂冰 650ml以上折價2元，以下折價1元,自備飲料杯
,7-ELEVEN(台北市第三四0分公司),內湖區,,,02-2795-4608,121.590912,餐飲類,,25.08243,折價,便利超商,台北市內湖區內湖路2段366號,2011/05/1起,00:00-24:00,City caf / 思樂冰 650ml以上折價2元，以下折價1元,自備飲料杯
,7-ELEVEN(台北市第三二一分公司),士林區,,,02-2834-0916,121.528604,餐飲類,,25.110241,折價,便利超商,台北市士林區德行東路109巷81號,2011/05/1起,00:00-24:00,City caf / 思樂冰 650ml以上折價2元，以下折價1元,自備飲料杯
,OK超商(第859分公司),松山區,,,02-8787-2297,121.565538,餐飲類,,25.064446,折價,便利超商,台北市松山區撫遠街382號1樓,2011/05/1起,00:00-24:00,OK Caf 飲品折價3元,自備飲料杯
,好了啦(西門峨眉店),萬華區,,,0933-338-474,121.507884,餐飲類,,25.043417,折價,飲料店,台北市萬華區峨嵋街49號之4,2011/05/1起,11:00-22:00,650ml(含)以上折價2元，以下折價1元,自備飲料杯
,全家便利商店(重陽分公司),南港區,,,02-2789-3918,121.598905,餐飲類,,25.056636,折價,便利超商,台北市南港區重陽路183、185號,2011/05/1起,00:00-24:00,全家伯朗咖啡館 飲品折價3元,自備飲料杯
,7-ELEVEN(台北市第103分公司),中正區,,,02-2357-9506,121.53068,餐飲類,,25.042815,折價,便利超商,台北市中正區忠孝東路2段102號,2011/05/1起,00:00-24:00,City caf / 思樂冰 650ml以上折價2元，以下折價1元,自備飲料杯
,清心福全(台北中山北安店),中山區,,,02-2533-0098,121.547032,餐飲類,,25.082269,折價,飲料店,台北市中山區北安路595巷35號,2011/05/1起,11:00-22:00,650ml(含)以上折價2元，以下折價1元,自備飲料杯
,超秦(麥味登)(饒合店),松山區,,,02-27421848,121.57823,餐飲類,,25.0511,折價,早餐店,台北市松山區八德路4段789號,2011/09/01起,07:00-11:00,折價1元,自備飲料杯
,怡客咖啡(敦信店),大安區,,,02-2704-8688,121.547902,餐飲類,,25.033073,折價,飲料店,台北市大安區信義路4段96號,2011/05/1起,11:00-22:00,飲品折價5元，若與店內其它優惠用折價1元,自備飲料杯
,弘爺漢堡(明湖店),內湖區,,,02-26334741,121.610706,餐飲類,,25.072562,折價,早餐店,台北市內湖區康寧路3段99巷12弄1號,2011/09/01起,07:00-11:00,折價1元,自備飲料杯
,全家便利商店(松仁分公司),信義區,,,02-2723-7309,121.568748,餐飲類,,25.028457,折價,便利超商,台北市信義區信義路5段150巷221號1樓,2011/05/1起,00:00-24:00,全家伯朗咖啡館 飲品折價3元,自備飲料杯
,全家便利商店(復興崗分公司),北投區,,,02-2892-0952,121.486745,餐飲類,,25.138369,折價,便利超商,台北市北投區中央北路3段2號,2011/05/1起,00:00-24:00,全家伯朗咖啡館 飲品折價3元,自備飲料杯
,清心福全(公館分公司),中正區,,,02-2367-8838,121.532435,餐飲類,,25.015641,折價,飲料店,台北市中正區羅斯福路3段316巷10-1號1樓,2011/05/1起,11:00-22:00,650ml(含)以上折價2元，以下折價1元,自備飲料杯
,壹咖啡(台北莊敬),信義區,,,02-2720-8188,121.564345,餐飲類,,25.027706,折價,飲料店,台北市信義區莊敬路354號,2011/05/1起,11:00-22:00,飲品折價2元，可與其他優惠並行但不折抵現金,自備飲料杯
,OK超商(新光門市部),士林區,,,02-6617-1795,121.520908,餐飲類,,25.096428,折價,便利超商,台北市士林區文昌路95號B3,2011/05/1起,00:00-24:00,OK Caf 飲品折價3元,自備飲料杯
,怡客咖啡(文山分公司),文山區,,,02-2230-1717,121.559673,餐飲類,,24.997017,折價,飲料店,台北市文山區興隆路3段222號,2011/05/1起,11:00-22:00,飲品折價5元，若與店內其它優惠用折價1元,自備飲料杯
,鮮芋仙(台北內湖店),內湖區,,,02-2799-3638,121.578962,餐飲類,,25.080158,折價,飲料店,台北市內湖區內湖路1段737巷45號,2011/05/1起,11:00-22:00,650ml(含)以上折價2元，以下折價1元,自備飲料杯
,聖德科斯天然有機門市(台南文賢門市),北區,,,06-250-5929,120.193372,餐飲類,,23.017042,折價,其他,台南市北區文賢路841號,2012/08/01起,07:30~21:00,自備環保杯來店購買任一現打飲品或研磨現煮有機咖啡的折價2元,自備飲料杯
,7-ELEVEN(台北市第一四二分公司),大安區,,,02-2731-8614,121.550671,餐飲類,,25.042638,折價,便利超商,台北市大安區敦化南路1段187巷29號,2011/05/1起,00:00-24:00,City caf / 思樂冰 650ml以上折價2元，以下折價1元,自備飲料杯
,三角埔仙草(南西店),大同區,,,02-2550-8889,121.514089,餐飲類,,25.054151,折價,飲料店,台北市大同區南京西路131號,2011/05/1起,11:00-22:00,飲品折價2元,自備飲料杯
,巧沛國際(德惠店),中山區,,,02-25947806,121.528671,餐飲類,,25.066745,折價,早餐店,台北市中山區德惠街85號,2011/09/01起,07:00-11:00,折價1元,自備飲料杯
,全家便利商店(德惠分公司),中山區,,,02-2595-3593,121.530305,餐飲類,,25.066674,折價,便利超商,台北市中山區吉林路448號,2011/05/1起,00:00-24:00,全家伯朗咖啡館 飲品折價3元,自備飲料杯
,拿坡里披薩(永吉分公司),信義區,,,02-2761-6966,121.576163,餐飲類,,25.045644,折價,速食店,台北市信義區永吉路343號1樓,2011/05/1起,11:00-22:00,飲品折價3元,自備飲料杯
,好了啦(士林大南店),士林區,,,0939-195-590,121.526044,餐飲類,,25.08907,折價,飲料店,台北市士林區大南路12號,2011/05/1起,11:00-22:00,650ml(含)以上折價2元，以下折價1元,自備飲料杯
,綠蓋茶館(士林店),士林區,,,02-2888-1301,121.524624,餐飲類,,25.095093,折價,飲料店,台北市士林區文林路340-1號1樓,2011/05/1起,11:00-22:00,飲品折價2元,自備飲料杯
,S&D咖啡(*合江店),中山區,,,02-2501-8732,121.539144,餐飲類,,25.060936,折價,飲料店,台北市中山區合江街178號,2011/05/1起,11:00-22:00,飲品折價2元,自備飲料杯
,7-ELEVEN(台北市第一八五分公司),北投區,,,02-2823-4063,121.514648,餐飲類,,25.11059,折價,便利超商,台北市北投區自強街82號,2011/05/1起,00:00-24:00,City caf / 思樂冰 650ml以上折價2元，以下折價1元,自備飲料杯
